<Root>
<GeocodeResponse>
 <status>OK</status>
 <result>
  <type>administrative_area_level_1</type>
  <type>political</type>
  <formatted_address>Luxembourg</formatted_address>
  <address_component>
   <long_name>Luxembourg</long_name>
   <short_name>Luxembourg</short_name>
   <type>administrative_area_level_1</type>
   <type>political</type>
  </address_component>
  <address_component>
   <long_name>Luxembourg</long_name>
   <short_name>LU</short_name>
   <type>country</type>
   <type>political</type>
  </address_component>
  <geometry>
   <location>
    <lat>49.6568287</lat>
    <lng>6.0333955</lng>
   </location>
   <location_type>APPROXIMATE</location_type>
   <viewport>
    <southwest>
     <lat>49.4477800</lat>
     <lng>5.8094800</lng>
    </southwest>
    <northeast>
     <lat>49.8343800</lat>
     <lng>6.3094500</lng>
    </northeast>
   </viewport>
   <bounds>
    <southwest>
     <lat>49.4477800</lat>
     <lng>5.8094800</lng>
    </southwest>
    <northeast>
     <lat>49.8343800</lat>
     <lng>6.3094500</lng>
    </northeast>
   </bounds>
  </geometry>
  <partial_match>true</partial_match>
 </result>
</GeocodeResponse>
<GeocodeResponse>
 <status>OK</status>
 <result>
  <type>administrative_area_level_1</type>
  <type>political</type>
  <formatted_address>Luxembourg</formatted_address>
  <address_component>
   <long_name>Luxembourg</long_name>
   <short_name>Luxembourg</short_name>
   <type>administrative_area_level_1</type>
   <type>political</type>
  </address_component>
  <address_component>
   <long_name>Luxembourg</long_name>
   <short_name>LU</short_name>
   <type>country</type>
   <type>political</type>
  </address_component>
  <geometry>
   <location>
    <lat>49.6568287</lat>
    <lng>6.0333955</lng>
   </location>
   <location_type>APPROXIMATE</location_type>
   <viewport>
    <southwest>
     <lat>49.4477800</lat>
     <lng>5.8094800</lng>
    </southwest>
    <northeast>
     <lat>49.8343800</lat>
     <lng>6.3094500</lng>
    </northeast>
   </viewport>
   <bounds>
    <southwest>
     <lat>49.4477800</lat>
     <lng>5.8094800</lng>
    </southwest>
    <northeast>
     <lat>49.8343800</lat>
     <lng>6.3094500</lng>
    </northeast>
   </bounds>
  </geometry>
  <partial_match>true</partial_match>
 </result>
</GeocodeResponse>
<GeocodeResponse>
 <status>OK</status>
 <result>
  <type>administrative_area_level_1</type>
  <type>political</type>
  <formatted_address>Luxembourg</formatted_address>
  <address_component>
   <long_name>Luxembourg</long_name>
   <short_name>Luxembourg</short_name>
   <type>administrative_area_level_1</type>
   <type>political</type>
  </address_component>
  <address_component>
   <long_name>Luxembourg</long_name>
   <short_name>LU</short_name>
   <type>country</type>
   <type>political</type>
  </address_component>
  <geometry>
   <location>
    <lat>49.6568287</lat>
    <lng>6.0333955</lng>
   </location>
   <location_type>APPROXIMATE</location_type>
   <viewport>
    <southwest>
     <lat>49.4477800</lat>
     <lng>5.8094800</lng>
    </southwest>
    <northeast>
     <lat>49.8343800</lat>
     <lng>6.3094500</lng>
    </northeast>
   </viewport>
   <bounds>
    <southwest>
     <lat>49.4477800</lat>
     <lng>5.8094800</lng>
    </southwest>
    <northeast>
     <lat>49.8343800</lat>
     <lng>6.3094500</lng>
    </northeast>
   </bounds>
  </geometry>
  <partial_match>true</partial_match>
 </result>
</GeocodeResponse>
<GeocodeResponse>
 <status>OK</status>
 <result>
  <type>administrative_area_level_1</type>
  <type>political</type>
  <formatted_address>Luxembourg</formatted_address>
  <address_component>
   <long_name>Luxembourg</long_name>
   <short_name>Luxembourg</short_name>
   <type>administrative_area_level_1</type>
   <type>political</type>
  </address_component>
  <address_component>
   <long_name>Luxembourg</long_name>
   <short_name>LU</short_name>
   <type>country</type>
   <type>political</type>
  </address_component>
  <geometry>
   <location>
    <lat>49.6568287</lat>
    <lng>6.0333955</lng>
   </location>
   <location_type>APPROXIMATE</location_type>
   <viewport>
    <southwest>
     <lat>49.4477800</lat>
     <lng>5.8094800</lng>
    </southwest>
    <northeast>
     <lat>49.8343800</lat>
     <lng>6.3094500</lng>
    </northeast>
   </viewport>
   <bounds>
    <southwest>
     <lat>49.4477800</lat>
     <lng>5.8094800</lng>
    </southwest>
    <northeast>
     <lat>49.8343800</lat>
     <lng>6.3094500</lng>
    </northeast>
   </bounds>
  </geometry>
  <partial_match>true</partial_match>
 </result>
</GeocodeResponse>
<GeocodeResponse>
 <status>OK</status>
 <result>
  <type>administrative_area_level_1</type>
  <type>political</type>
  <formatted_address>Luxembourg</formatted_address>
  <address_component>
   <long_name>Luxembourg</long_name>
   <short_name>Luxembourg</short_name>
   <type>administrative_area_level_1</type>
   <type>political</type>
  </address_component>
  <address_component>
   <long_name>Luxembourg</long_name>
   <short_name>LU</short_name>
   <type>country</type>
   <type>political</type>
  </address_component>
  <geometry>
   <location>
    <lat>49.6568287</lat>
    <lng>6.0333955</lng>
   </location>
   <location_type>APPROXIMATE</location_type>
   <viewport>
    <southwest>
     <lat>49.4477800</lat>
     <lng>5.8094800</lng>
    </southwest>
    <northeast>
     <lat>49.8343800</lat>
     <lng>6.3094500</lng>
    </northeast>
   </viewport>
   <bounds>
    <southwest>
     <lat>49.4477800</lat>
     <lng>5.8094800</lng>
    </southwest>
    <northeast>
     <lat>49.8343800</lat>
     <lng>6.3094500</lng>
    </northeast>
   </bounds>
  </geometry>
  <partial_match>true</partial_match>
 </result>
</GeocodeResponse>
<GeocodeResponse>
 <status>OK</status>
 <result>
  <type>administrative_area_level_1</type>
  <type>political</type>
  <formatted_address>Luxembourg</formatted_address>
  <address_component>
   <long_name>Luxembourg</long_name>
   <short_name>Luxembourg</short_name>
   <type>administrative_area_level_1</type>
   <type>political</type>
  </address_component>
  <address_component>
   <long_name>Luxembourg</long_name>
   <short_name>LU</short_name>
   <type>country</type>
   <type>political</type>
  </address_component>
  <geometry>
   <location>
    <lat>49.6568287</lat>
    <lng>6.0333955</lng>
   </location>
   <location_type>APPROXIMATE</location_type>
   <viewport>
    <southwest>
     <lat>49.4477800</lat>
     <lng>5.8094800</lng>
    </southwest>
    <northeast>
     <lat>49.8343800</lat>
     <lng>6.3094500</lng>
    </northeast>
   </viewport>
   <bounds>
    <southwest>
     <lat>49.4477800</lat>
     <lng>5.8094800</lng>
    </southwest>
    <northeast>
     <lat>49.8343800</lat>
     <lng>6.3094500</lng>
    </northeast>
   </bounds>
  </geometry>
  <partial_match>true</partial_match>
 </result>
</GeocodeResponse>
<GeocodeResponse>
 <status>OK</status>
 <result>
  <type>administrative_area_level_1</type>
  <type>political</type>
  <formatted_address>Luxembourg</formatted_address>
  <address_component>
   <long_name>Luxembourg</long_name>
   <short_name>Luxembourg</short_name>
   <type>administrative_area_level_1</type>
   <type>political</type>
  </address_component>
  <address_component>
   <long_name>Luxembourg</long_name>
   <short_name>LU</short_name>
   <type>country</type>
   <type>political</type>
  </address_component>
  <geometry>
   <location>
    <lat>49.6568287</lat>
    <lng>6.0333955</lng>
   </location>
   <location_type>APPROXIMATE</location_type>
   <viewport>
    <southwest>
     <lat>49.4477800</lat>
     <lng>5.8094800</lng>
    </southwest>
    <northeast>
     <lat>49.8343800</lat>
     <lng>6.3094500</lng>
    </northeast>
   </viewport>
   <bounds>
    <southwest>
     <lat>49.4477800</lat>
     <lng>5.8094800</lng>
    </southwest>
    <northeast>
     <lat>49.8343800</lat>
     <lng>6.3094500</lng>
    </northeast>
   </bounds>
  </geometry>
  <partial_match>true</partial_match>
 </result>
</GeocodeResponse>
<GeocodeResponse>
 <status>OK</status>
 <result>
  <type>country</type>
  <type>political</type>
  <formatted_address>Luxembourg</formatted_address>
  <address_component>
   <long_name>Luxembourg</long_name>
   <short_name>LU</short_name>
   <type>country</type>
   <type>political</type>
  </address_component>
  <geometry>
   <location>
    <lat>49.8152730</lat>
    <lng>6.1295830</lng>
   </location>
   <location_type>APPROXIMATE</location_type>
   <viewport>
    <southwest>
     <lat>49.4477790</lat>
     <lng>5.7356700</lng>
    </southwest>
    <northeast>
     <lat>50.1828200</lat>
     <lng>6.5309700</lng>
    </northeast>
   </viewport>
   <bounds>
    <southwest>
     <lat>49.4477790</lat>
     <lng>5.7356700</lng>
    </southwest>
    <northeast>
     <lat>50.1828200</lat>
     <lng>6.5309700</lng>
    </northeast>
   </bounds>
  </geometry>
  <partial_match>true</partial_match>
 </result>
</GeocodeResponse>
<GeocodeResponse>
 <status>ZERO_RESULTS</status>
</GeocodeResponse>
<GeocodeResponse>
 <status>OK</status>
 <result>
  <type>route</type>
  <formatted_address>Avenue Archimède, 02100 Saint-Quentin, France</formatted_address>
  <address_component>
   <long_name>Avenue Archimède</long_name>
   <short_name>Av. Archimède</short_name>
   <type>route</type>
  </address_component>
  <address_component>
   <long_name>Saint-Quentin</long_name>
   <short_name>Saint-Quentin</short_name>
   <type>locality</type>
   <type>political</type>
  </address_component>
  <address_component>
   <long_name>Aisne</long_name>
   <short_name>Aisne</short_name>
   <type>administrative_area_level_2</type>
   <type>political</type>
  </address_component>
  <address_component>
   <long_name>Picardy</long_name>
   <short_name>Picardy</short_name>
   <type>administrative_area_level_1</type>
   <type>political</type>
  </address_component>
  <address_component>
   <long_name>France</long_name>
   <short_name>FR</short_name>
   <type>country</type>
   <type>political</type>
  </address_component>
  <address_component>
   <long_name>02100</long_name>
   <short_name>02100</short_name>
   <type>postal_code</type>
  </address_component>
  <geometry>
   <location>
    <lat>49.8559665</lat>
    <lng>3.2621420</lng>
   </location>
   <location_type>GEOMETRIC_CENTER</location_type>
   <viewport>
    <southwest>
     <lat>49.8539718</lat>
     <lng>3.2561860</lng>
    </southwest>
    <northeast>
     <lat>49.8589640</lat>
     <lng>3.2665800</lng>
    </northeast>
   </viewport>
   <bounds>
    <southwest>
     <lat>49.8539718</lat>
     <lng>3.2561860</lng>
    </southwest>
    <northeast>
     <lat>49.8589640</lat>
     <lng>3.2665800</lng>
    </northeast>
   </bounds>
  </geometry>
  <partial_match>true</partial_match>
 </result>
</GeocodeResponse>
<GeocodeResponse>
 <status>OK</status>
 <result>
  <type>country</type>
  <type>political</type>
  <formatted_address>France</formatted_address>
  <address_component>
   <long_name>France</long_name>
   <short_name>FR</short_name>
   <type>country</type>
   <type>political</type>
  </address_component>
  <geometry>
   <location>
    <lat>46.2276380</lat>
    <lng>2.2137490</lng>
   </location>
   <location_type>APPROXIMATE</location_type>
   <viewport>
    <southwest>
     <lat>41.3423276</lat>
     <lng>-5.1404020</lng>
    </southwest>
    <northeast>
     <lat>51.0891663</lat>
     <lng>9.5597934</lng>
    </northeast>
   </viewport>
   <bounds>
    <southwest>
     <lat>41.3423276</lat>
     <lng>-5.1412280</lng>
    </southwest>
    <northeast>
     <lat>51.0891663</lat>
     <lng>9.5600677</lng>
    </northeast>
   </bounds>
  </geometry>
 </result>
</GeocodeResponse>
<GeocodeResponse>
 <status>ZERO_RESULTS</status>
</GeocodeResponse>
<GeocodeResponse>
 <status>ZERO_RESULTS</status>
</GeocodeResponse>
<GeocodeResponse>
 <status>OVER_QUERY_LIMIT</status>
 <error_message>You have exceeded your rate-limit for this API.</error_message>
</GeocodeResponse>
<GeocodeResponse>
 <status>OVER_QUERY_LIMIT</status>
 <error_message>You have exceeded your rate-limit for this API.</error_message>
</GeocodeResponse>
<GeocodeResponse>
 <status>OVER_QUERY_LIMIT</status>
 <error_message>You have exceeded your rate-limit for this API.</error_message>
</GeocodeResponse>
<GeocodeResponse>
 <status>OK</status>
 <result>
  <type>locality</type>
  <type>political</type>
  <formatted_address>Le Rheu, France</formatted_address>
  <address_component>
   <long_name>Le Rheu</long_name>
   <short_name>Le Rheu</short_name>
   <type>locality</type>
   <type>political</type>
  </address_component>
  <address_component>
   <long_name>Ille-et-Vilaine</long_name>
   <short_name>35</short_name>
   <type>administrative_area_level_2</type>
   <type>political</type>
  </address_component>
  <address_component>
   <long_name>Brittany</long_name>
   <short_name>Brittany</short_name>
   <type>administrative_area_level_1</type>
   <type>political</type>
  </address_component>
  <address_component>
   <long_name>France</long_name>
   <short_name>FR</short_name>
   <type>country</type>
   <type>political</type>
  </address_component>
  <geometry>
   <location>
    <lat>48.1010970</lat>
    <lng>-1.7953840</lng>
   </location>
   <location_type>APPROXIMATE</location_type>
   <viewport>
    <southwest>
     <lat>48.0707710</lat>
     <lng>-1.8332140</lng>
    </southwest>
    <northeast>
     <lat>48.1234190</lat>
     <lng>-1.7431510</lng>
    </northeast>
   </viewport>
   <bounds>
    <southwest>
     <lat>48.0707710</lat>
     <lng>-1.8332140</lng>
    </southwest>
    <northeast>
     <lat>48.1234190</lat>
     <lng>-1.7431510</lng>
    </northeast>
   </bounds>
  </geometry>
 </result>
</GeocodeResponse>
<GeocodeResponse>
 <status>OVER_QUERY_LIMIT</status>
 <error_message>You have exceeded your rate-limit for this API.</error_message>
</GeocodeResponse>
<GeocodeResponse>
 <status>OVER_QUERY_LIMIT</status>
 <error_message>You have exceeded your rate-limit for this API.</error_message>
</GeocodeResponse>
<GeocodeResponse>
 <status>OVER_QUERY_LIMIT</status>
 <error_message>You have exceeded your rate-limit for this API.</error_message>
</GeocodeResponse>
<GeocodeResponse>
 <status>OVER_QUERY_LIMIT</status>
 <error_message>You have exceeded your rate-limit for this API.</error_message>
</GeocodeResponse>
<GeocodeResponse>
 <status>OVER_QUERY_LIMIT</status>
 <error_message>You have exceeded your rate-limit for this API.</error_message>
</GeocodeResponse>
<GeocodeResponse>
 <status>OVER_QUERY_LIMIT</status>
 <error_message>You have exceeded your rate-limit for this API.</error_message>
</GeocodeResponse>
<GeocodeResponse>
 <status>ZERO_RESULTS</status>
</GeocodeResponse>
<GeocodeResponse>
 <status>ZERO_RESULTS</status>
</GeocodeResponse>
<GeocodeResponse>
 <status>OVER_QUERY_LIMIT</status>
 <error_message>You have exceeded your rate-limit for this API.</error_message>
</GeocodeResponse>
<GeocodeResponse>
 <status>OVER_QUERY_LIMIT</status>
 <error_message>You have exceeded your rate-limit for this API.</error_message>
</GeocodeResponse>
<GeocodeResponse>
 <status>OVER_QUERY_LIMIT</status>
 <error_message>You have exceeded your rate-limit for this API.</error_message>
</GeocodeResponse>
<GeocodeResponse>
 <status>OK</status>
 <result>
  <type>point_of_interest</type>
  <type>establishment</type>
  <formatted_address>Club d'arts martiaux de Flavigny, judo, jujitsu et karaté., Rue du Chaubourot, 54630 Flavigny-sur-Moselle, France</formatted_address>
  <address_component>
   <long_name>Club d'arts martiaux de Flavigny, judo, jujitsu et karaté.</long_name>
   <short_name>Club d'arts martiaux de Flavigny, judo, jujitsu et karaté.</short_name>
   <type>point_of_interest</type>
   <type>establishment</type>
  </address_component>
  <address_component>
   <long_name>Rue du Chaubourot</long_name>
   <short_name>Rue du Chaubourot</short_name>
   <type>route</type>
  </address_component>
  <address_component>
   <long_name>Flavigny-sur-Moselle</long_name>
   <short_name>Flavigny-sur-Moselle</short_name>
   <type>locality</type>
   <type>political</type>
  </address_component>
  <address_component>
   <long_name>Meurthe-et-Moselle</long_name>
   <short_name>54</short_name>
   <type>administrative_area_level_2</type>
   <type>political</type>
  </address_component>
  <address_component>
   <long_name>Lorraine</long_name>
   <short_name>Lorraine</short_name>
   <type>administrative_area_level_1</type>
   <type>political</type>
  </address_component>
  <address_component>
   <long_name>France</long_name>
   <short_name>FR</short_name>
   <type>country</type>
   <type>political</type>
  </address_component>
  <address_component>
   <long_name>54630</long_name>
   <short_name>54630</short_name>
   <type>postal_code</type>
  </address_component>
  <geometry>
   <location>
    <lat>48.5662490</lat>
    <lng>6.1901950</lng>
   </location>
   <location_type>APPROXIMATE</location_type>
   <viewport>
    <southwest>
     <lat>48.5649000</lat>
     <lng>6.1888460</lng>
    </southwest>
    <northeast>
     <lat>48.5675980</lat>
     <lng>6.1915440</lng>
    </northeast>
   </viewport>
  </geometry>
  <partial_match>true</partial_match>
 </result>
 <result>
  <type>natural_feature</type>
  <type>establishment</type>
  <formatted_address>Bois de Flavigny, 54630 Flavigny-sur-Moselle, France</formatted_address>
  <address_component>
   <long_name>Bois de Flavigny</long_name>
   <short_name>Bois de Flavigny</short_name>
   <type>natural_feature</type>
   <type>establishment</type>
  </address_component>
  <address_component>
   <long_name>Flavigny-sur-Moselle</long_name>
   <short_name>Flavigny-sur-Moselle</short_name>
   <type>locality</type>
   <type>political</type>
  </address_component>
  <address_component>
   <long_name>Meurthe-et-Moselle</long_name>
   <short_name>54</short_name>
   <type>administrative_area_level_2</type>
   <type>political</type>
  </address_component>
  <address_component>
   <long_name>Lorraine</long_name>
   <short_name>Lorraine</short_name>
   <type>administrative_area_level_1</type>
   <type>political</type>
  </address_component>
  <address_component>
   <long_name>France</long_name>
   <short_name>FR</short_name>
   <type>country</type>
   <type>political</type>
  </address_component>
  <address_component>
   <long_name>54630</long_name>
   <short_name>54630</short_name>
   <type>postal_code</type>
  </address_component>
  <geometry>
   <location>
    <lat>48.5833333</lat>
    <lng>6.2000000</lng>
   </location>
   <location_type>APPROXIMATE</location_type>
   <viewport>
    <southwest>
     <lat>48.5819843</lat>
     <lng>6.1986510</lng>
    </southwest>
    <northeast>
     <lat>48.5846823</lat>
     <lng>6.2013490</lng>
    </northeast>
   </viewport>
  </geometry>
  <partial_match>true</partial_match>
 </result>
 <result>
  <type>natural_feature</type>
  <type>establishment</type>
  <formatted_address>Le Frahaut (Forêt Domaniale de Flavigny), 54630 Flavigny-sur-Moselle, France</formatted_address>
  <address_component>
   <long_name>Le Frahaut (Forêt Domaniale de Flavigny)</long_name>
   <short_name>Le Frahaut (Forêt Domaniale de Flavigny)</short_name>
   <type>natural_feature</type>
   <type>establishment</type>
  </address_component>
  <address_component>
   <long_name>Flavigny-sur-Moselle</long_name>
   <short_name>Flavigny-sur-Moselle</short_name>
   <type>locality</type>
   <type>political</type>
  </address_component>
  <address_component>
   <long_name>Meurthe-et-Moselle</long_name>
   <short_name>54</short_name>
   <type>administrative_area_level_2</type>
   <type>political</type>
  </address_component>
  <address_component>
   <long_name>Lorraine</long_name>
   <short_name>Lorraine</short_name>
   <type>administrative_area_level_1</type>
   <type>political</type>
  </address_component>
  <address_component>
   <long_name>France</long_name>
   <short_name>FR</short_name>
   <type>country</type>
   <type>political</type>
  </address_component>
  <address_component>
   <long_name>54630</long_name>
   <short_name>54630</short_name>
   <type>postal_code</type>
  </address_component>
  <geometry>
   <location>
    <lat>48.5695030</lat>
    <lng>6.1616740</lng>
   </location>
   <location_type>APPROXIMATE</location_type>
   <viewport>
    <southwest>
     <lat>48.5681540</lat>
     <lng>6.1603250</lng>
    </southwest>
    <northeast>
     <lat>48.5708520</lat>
     <lng>6.1630230</lng>
    </northeast>
   </viewport>
  </geometry>
  <partial_match>true</partial_match>
 </result>
 <result>
  <type>natural_feature</type>
  <type>establishment</type>
  <formatted_address>Bois du Rougelot (Forêt Domaniale de Flavigny), 54630 Flavigny-sur-Moselle, France</formatted_address>
  <address_component>
   <long_name>Bois du Rougelot (Forêt Domaniale de Flavigny)</long_name>
   <short_name>Bois du Rougelot (Forêt Domaniale de Flavigny)</short_name>
   <type>natural_feature</type>
   <type>establishment</type>
  </address_component>
  <address_component>
   <long_name>Flavigny-sur-Moselle</long_name>
   <short_name>Flavigny-sur-Moselle</short_name>
   <type>locality</type>
   <type>political</type>
  </address_component>
  <address_component>
   <long_name>Meurthe-et-Moselle</long_name>
   <short_name>54</short_name>
   <type>administrative_area_level_2</type>
   <type>political</type>
  </address_component>
  <address_component>
   <long_name>Lorraine</long_name>
   <short_name>Lorraine</short_name>
   <type>administrative_area_level_1</type>
   <type>political</type>
  </address_component>
  <address_component>
   <long_name>France</long_name>
   <short_name>FR</short_name>
   <type>country</type>
   <type>political</type>
  </address_component>
  <address_component>
   <long_name>54630</long_name>
   <short_name>54630</short_name>
   <type>postal_code</type>
  </address_component>
  <geometry>
   <location>
    <lat>48.5755980</lat>
    <lng>6.2125480</lng>
   </location>
   <location_type>APPROXIMATE</location_type>
   <viewport>
    <southwest>
     <lat>48.5742490</lat>
     <lng>6.2111990</lng>
    </southwest>
    <northeast>
     <lat>48.5769470</lat>
     <lng>6.2138970</lng>
    </northeast>
   </viewport>
  </geometry>
  <partial_match>true</partial_match>
 </result>
</GeocodeResponse>
<GeocodeResponse>
 <status>INVALID_REQUEST</status>
</GeocodeResponse>
<GeocodeResponse>
 <status>OK</status>
 <result>
  <type>point_of_interest</type>
  <type>establishment</type>
  <formatted_address>École De SURF TAIBA BIDART, Avenue d'Espagne, 64210 Bidart, France</formatted_address>
  <address_component>
   <long_name>École De SURF TAIBA BIDART</long_name>
   <short_name>École De SURF TAIBA BIDART</short_name>
   <type>point_of_interest</type>
   <type>establishment</type>
  </address_component>
  <address_component>
   <long_name>Avenue d'Espagne</long_name>
   <short_name>Av. d'Espagne</short_name>
   <type>route</type>
  </address_component>
  <address_component>
   <long_name>Bidart</long_name>
   <short_name>Bidart</short_name>
   <type>locality</type>
   <type>political</type>
  </address_component>
  <address_component>
   <long_name>Pyrénées-Atlantiques</long_name>
   <short_name>64</short_name>
   <type>administrative_area_level_2</type>
   <type>political</type>
  </address_component>
  <address_component>
   <long_name>Aquitaine</long_name>
   <short_name>Aquitaine</short_name>
   <type>administrative_area_level_1</type>
   <type>political</type>
  </address_component>
  <address_component>
   <long_name>France</long_name>
   <short_name>FR</short_name>
   <type>country</type>
   <type>political</type>
  </address_component>
  <address_component>
   <long_name>64210</long_name>
   <short_name>64210</short_name>
   <type>postal_code</type>
  </address_component>
  <geometry>
   <location>
    <lat>43.4303677</lat>
    <lng>-1.5983313</lng>
   </location>
   <location_type>APPROXIMATE</location_type>
   <viewport>
    <southwest>
     <lat>43.4290187</lat>
     <lng>-1.5996803</lng>
    </southwest>
    <northeast>
     <lat>43.4317167</lat>
     <lng>-1.5969823</lng>
    </northeast>
   </viewport>
  </geometry>
  <partial_match>true</partial_match>
 </result>
 <result>
  <type>point_of_interest</type>
  <type>establishment</type>
  <formatted_address>Tennis Club de Bidart, Rue de la Gare, 64210 Bidart, France</formatted_address>
  <address_component>
   <long_name>Tennis Club de Bidart</long_name>
   <short_name>Tennis Club de Bidart</short_name>
   <type>point_of_interest</type>
   <type>establishment</type>
  </address_component>
  <address_component>
   <long_name>Rue de la Gare</long_name>
   <short_name>Rue de la Gare</short_name>
   <type>route</type>
  </address_component>
  <address_component>
   <long_name>Bidart</long_name>
   <short_name>Bidart</short_name>
   <type>locality</type>
   <type>political</type>
  </address_component>
  <address_component>
   <long_name>Pyrénées-Atlantiques</long_name>
   <short_name>64</short_name>
   <type>administrative_area_level_2</type>
   <type>political</type>
  </address_component>
  <address_component>
   <long_name>Aquitaine</long_name>
   <short_name>Aquitaine</short_name>
   <type>administrative_area_level_1</type>
   <type>political</type>
  </address_component>
  <address_component>
   <long_name>France</long_name>
   <short_name>FR</short_name>
   <type>country</type>
   <type>political</type>
  </address_component>
  <address_component>
   <long_name>64210</long_name>
   <short_name>64210</short_name>
   <type>postal_code</type>
  </address_component>
  <geometry>
   <location>
    <lat>43.4305690</lat>
    <lng>-1.5941710</lng>
   </location>
   <location_type>APPROXIMATE</location_type>
   <viewport>
    <southwest>
     <lat>43.4292200</lat>
     <lng>-1.5955200</lng>
    </southwest>
    <northeast>
     <lat>43.4319180</lat>
     <lng>-1.5928220</lng>
    </northeast>
   </viewport>
  </geometry>
  <partial_match>true</partial_match>
 </result>
 <result>
  <type>point_of_interest</type>
  <type>establishment</type>
  <formatted_address>Ecole Française de Surf H2O BIDART, Plage de l'Uhabia, 64210 Bidart, France</formatted_address>
  <address_component>
   <long_name>Ecole Française de Surf H2O BIDART</long_name>
   <short_name>Ecole Française de Surf H2O BIDART</short_name>
   <type>point_of_interest</type>
   <type>establishment</type>
  </address_component>
  <address_component>
   <long_name>Plage de l'Uhabia</long_name>
   <short_name>Plage de l'Uhabia</short_name>
   <type>premise</type>
  </address_component>
  <address_component>
   <long_name>Bidart</long_name>
   <short_name>Bidart</short_name>
   <type>locality</type>
   <type>political</type>
  </address_component>
  <address_component>
   <long_name>Pyrénées-Atlantiques</long_name>
   <short_name>64</short_name>
   <type>administrative_area_level_2</type>
   <type>political</type>
  </address_component>
  <address_component>
   <long_name>Aquitaine</long_name>
   <short_name>Aquitaine</short_name>
   <type>administrative_area_level_1</type>
   <type>political</type>
  </address_component>
  <address_component>
   <long_name>France</long_name>
   <short_name>FR</short_name>
   <type>country</type>
   <type>political</type>
  </address_component>
  <address_component>
   <long_name>64210</long_name>
   <short_name>64210</short_name>
   <type>postal_code</type>
  </address_component>
  <geometry>
   <location>
    <lat>43.4307410</lat>
    <lng>-1.6000440</lng>
   </location>
   <location_type>APPROXIMATE</location_type>
   <viewport>
    <southwest>
     <lat>43.4293920</lat>
     <lng>-1.6013930</lng>
    </southwest>
    <northeast>
     <lat>43.4320900</lat>
     <lng>-1.5986950</lng>
    </northeast>
   </viewport>
  </geometry>
  <partial_match>true</partial_match>
 </result>
 <result>
  <type>point_of_interest</type>
  <type>establishment</type>
  <formatted_address>Bidarteko Dojo, 567 Rue de la Gare, 64210 Bidart, France</formatted_address>
  <address_component>
   <long_name>Bidarteko Dojo</long_name>
   <short_name>Bidarteko Dojo</short_name>
   <type>point_of_interest</type>
   <type>establishment</type>
  </address_component>
  <address_component>
   <long_name>567</long_name>
   <short_name>567</short_name>
   <type>street_number</type>
  </address_component>
  <address_component>
   <long_name>Rue de la Gare</long_name>
   <short_name>Rue de la Gare</short_name>
   <type>route</type>
  </address_component>
  <address_component>
   <long_name>Bidart</long_name>
   <short_name>Bidart</short_name>
   <type>locality</type>
   <type>political</type>
  </address_component>
  <address_component>
   <long_name>Pyrénées-Atlantiques</long_name>
   <short_name>64</short_name>
   <type>administrative_area_level_2</type>
   <type>political</type>
  </address_component>
  <address_component>
   <long_name>Aquitaine</long_name>
   <short_name>Aquitaine</short_name>
   <type>administrative_area_level_1</type>
   <type>political</type>
  </address_component>
  <address_component>
   <long_name>France</long_name>
   <short_name>FR</short_name>
   <type>country</type>
   <type>political</type>
  </address_component>
  <address_component>
   <long_name>64210</long_name>
   <short_name>64210</short_name>
   <type>postal_code</type>
  </address_component>
  <geometry>
   <location>
    <lat>43.4307410</lat>
    <lng>-1.5913060</lng>
   </location>
   <location_type>APPROXIMATE</location_type>
   <viewport>
    <southwest>
     <lat>43.4293920</lat>
     <lng>-1.5926550</lng>
    </southwest>
    <northeast>
     <lat>43.4320900</lat>
     <lng>-1.5899570</lng>
    </northeast>
   </viewport>
  </geometry>
  <partial_match>true</partial_match>
 </result>
 <result>
  <type>point_of_interest</type>
  <type>establishment</type>
  <formatted_address>Bidart Surf Academy, 19 Impasse Lahontine, 64200 Biarritz, France</formatted_address>
  <address_component>
   <long_name>Bidart Surf Academy</long_name>
   <short_name>Bidart Surf Academy</short_name>
   <type>point_of_interest</type>
   <type>establishment</type>
  </address_component>
  <address_component>
   <long_name>19</long_name>
   <short_name>19</short_name>
   <type>street_number</type>
  </address_component>
  <address_component>
   <long_name>Impasse Lahontine</long_name>
   <short_name>Imp. Lahontine</short_name>
   <type>route</type>
  </address_component>
  <address_component>
   <long_name>Biarritz</long_name>
   <short_name>Biarritz</short_name>
   <type>locality</type>
   <type>political</type>
  </address_component>
  <address_component>
   <long_name>Pyrénées-Atlantiques</long_name>
   <short_name>64</short_name>
   <type>administrative_area_level_2</type>
   <type>political</type>
  </address_component>
  <address_component>
   <long_name>Aquitaine</long_name>
   <short_name>Aquitaine</short_name>
   <type>administrative_area_level_1</type>
   <type>political</type>
  </address_component>
  <address_component>
   <long_name>France</long_name>
   <short_name>FR</short_name>
   <type>country</type>
   <type>political</type>
  </address_component>
  <address_component>
   <long_name>64200</long_name>
   <short_name>64200</short_name>
   <type>postal_code</type>
  </address_component>
  <geometry>
   <location>
    <lat>43.4594290</lat>
    <lng>-1.5786830</lng>
   </location>
   <location_type>APPROXIMATE</location_type>
   <viewport>
    <southwest>
     <lat>43.4580800</lat>
     <lng>-1.5800320</lng>
    </southwest>
    <northeast>
     <lat>43.4607780</lat>
     <lng>-1.5773340</lng>
    </northeast>
   </viewport>
  </geometry>
  <partial_match>true</partial_match>
 </result>
</GeocodeResponse>
<GeocodeResponse>
 <status>OK</status>
 <result>
  <type>establishment</type>
  <formatted_address>École maternelle, 6 Rue des Écoles, 24430 Marsac-sur-l'Isle, France</formatted_address>
  <address_component>
   <long_name>École maternelle</long_name>
   <short_name>École maternelle</short_name>
   <type>establishment</type>
  </address_component>
  <address_component>
   <long_name>6</long_name>
   <short_name>6</short_name>
   <type>street_number</type>
  </address_component>
  <address_component>
   <long_name>Rue des Écoles</long_name>
   <short_name>Rue des Écoles</short_name>
   <type>route</type>
  </address_component>
  <address_component>
   <long_name>Marsac-sur-l'Isle</long_name>
   <short_name>Marsac-sur-l'Isle</short_name>
   <type>locality</type>
   <type>political</type>
  </address_component>
  <address_component>
   <long_name>Dordogne</long_name>
   <short_name>24</short_name>
   <type>administrative_area_level_2</type>
   <type>political</type>
  </address_component>
  <address_component>
   <long_name>Aquitaine</long_name>
   <short_name>Aquitaine</short_name>
   <type>administrative_area_level_1</type>
   <type>political</type>
  </address_component>
  <address_component>
   <long_name>France</long_name>
   <short_name>FR</short_name>
   <type>country</type>
   <type>political</type>
  </address_component>
  <address_component>
   <long_name>24430</long_name>
   <short_name>24430</short_name>
   <type>postal_code</type>
  </address_component>
  <geometry>
   <location>
    <lat>45.1859261</lat>
    <lng>0.6342739</lng>
   </location>
   <location_type>APPROXIMATE</location_type>
   <viewport>
    <southwest>
     <lat>45.1844105</lat>
     <lng>0.6328660</lng>
    </southwest>
    <northeast>
     <lat>45.1871085</lat>
     <lng>0.6355639</lng>
    </northeast>
   </viewport>
   <bounds>
    <southwest>
     <lat>45.1854230</lat>
     <lng>0.6337610</lng>
    </southwest>
    <northeast>
     <lat>45.1860960</lat>
     <lng>0.6346689</lng>
    </northeast>
   </bounds>
  </geometry>
  <partial_match>true</partial_match>
 </result>
</GeocodeResponse>
<GeocodeResponse>
 <status>OK</status>
 <result>
  <type>airport</type>
  <type>transit_station</type>
  <type>establishment</type>
  <formatted_address>Charles De Gaulle Airport (CDG), 95700 Roissy-en-France, France</formatted_address>
  <address_component>
   <long_name>Charles De Gaulle Airport</long_name>
   <short_name>Charles De Gaulle Airport</short_name>
   <type>establishment</type>
  </address_component>
  <address_component>
   <long_name>Roissy-en-France</long_name>
   <short_name>Roissy-en-France</short_name>
   <type>locality</type>
   <type>political</type>
  </address_component>
  <address_component>
   <long_name>Île-de-France</long_name>
   <short_name>IDF</short_name>
   <type>administrative_area_level_1</type>
   <type>political</type>
  </address_component>
  <address_component>
   <long_name>France</long_name>
   <short_name>FR</short_name>
   <type>country</type>
   <type>political</type>
  </address_component>
  <address_component>
   <long_name>95700</long_name>
   <short_name>95700</short_name>
   <type>postal_code</type>
  </address_component>
  <geometry>
   <location>
    <lat>49.0040000</lat>
    <lng>2.5711000</lng>
   </location>
   <location_type>APPROXIMATE</location_type>
   <viewport>
    <southwest>
     <lat>48.9837299</lat>
     <lng>2.4920429</lng>
    </southwest>
    <northeast>
     <lat>49.0302424</lat>
     <lng>2.6151659</lng>
    </northeast>
   </viewport>
   <bounds>
    <southwest>
     <lat>48.9837299</lat>
     <lng>2.4920429</lng>
    </southwest>
    <northeast>
     <lat>49.0302424</lat>
     <lng>2.6151659</lng>
    </northeast>
   </bounds>
  </geometry>
  <partial_match>true</partial_match>
 </result>
</GeocodeResponse>
<GeocodeResponse>
 <status>OK</status>
 <result>
  <type>country</type>
  <type>political</type>
  <formatted_address>France</formatted_address>
  <address_component>
   <long_name>France</long_name>
   <short_name>FR</short_name>
   <type>country</type>
   <type>political</type>
  </address_component>
  <geometry>
   <location>
    <lat>46.2276380</lat>
    <lng>2.2137490</lng>
   </location>
   <location_type>APPROXIMATE</location_type>
   <viewport>
    <southwest>
     <lat>41.3423276</lat>
     <lng>-5.1404020</lng>
    </southwest>
    <northeast>
     <lat>51.0891663</lat>
     <lng>9.5597934</lng>
    </northeast>
   </viewport>
   <bounds>
    <southwest>
     <lat>41.3423276</lat>
     <lng>-5.1412280</lng>
    </southwest>
    <northeast>
     <lat>51.0891663</lat>
     <lng>9.5600677</lng>
    </northeast>
   </bounds>
  </geometry>
 </result>
</GeocodeResponse>
<GeocodeResponse>
 <status>ZERO_RESULTS</status>
</GeocodeResponse>
<GeocodeResponse>
 <status>OK</status>
 <result>
  <type>country</type>
  <type>political</type>
  <formatted_address>France</formatted_address>
  <address_component>
   <long_name>France</long_name>
   <short_name>FR</short_name>
   <type>country</type>
   <type>political</type>
  </address_component>
  <geometry>
   <location>
    <lat>46.2276380</lat>
    <lng>2.2137490</lng>
   </location>
   <location_type>APPROXIMATE</location_type>
   <viewport>
    <southwest>
     <lat>41.3423276</lat>
     <lng>-5.1404020</lng>
    </southwest>
    <northeast>
     <lat>51.0891663</lat>
     <lng>9.5597934</lng>
    </northeast>
   </viewport>
   <bounds>
    <southwest>
     <lat>41.3423276</lat>
     <lng>-5.1412280</lng>
    </southwest>
    <northeast>
     <lat>51.0891663</lat>
     <lng>9.5600677</lng>
    </northeast>
   </bounds>
  </geometry>
 </result>
</GeocodeResponse>
<GeocodeResponse>
 <status>OK</status>
 <result>
  <type>locality</type>
  <type>political</type>
  <formatted_address>Velaines, France</formatted_address>
  <address_component>
   <long_name>Velaines</long_name>
   <short_name>Velaines</short_name>
   <type>locality</type>
   <type>political</type>
  </address_component>
  <address_component>
   <long_name>Meuse</long_name>
   <short_name>55</short_name>
   <type>administrative_area_level_2</type>
   <type>political</type>
  </address_component>
  <address_component>
   <long_name>Lorraine</long_name>
   <short_name>Lorraine</short_name>
   <type>administrative_area_level_1</type>
   <type>political</type>
  </address_component>
  <address_component>
   <long_name>France</long_name>
   <short_name>FR</short_name>
   <type>country</type>
   <type>political</type>
  </address_component>
  <geometry>
   <location>
    <lat>48.7028450</lat>
    <lng>5.3005370</lng>
   </location>
   <location_type>APPROXIMATE</location_type>
   <viewport>
    <southwest>
     <lat>48.6802629</lat>
     <lng>5.2592060</lng>
    </southwest>
    <northeast>
     <lat>48.7118589</lat>
     <lng>5.3380480</lng>
    </northeast>
   </viewport>
   <bounds>
    <southwest>
     <lat>48.6802629</lat>
     <lng>5.2592060</lng>
    </southwest>
    <northeast>
     <lat>48.7118589</lat>
     <lng>5.3380480</lng>
    </northeast>
   </bounds>
  </geometry>
  <partial_match>true</partial_match>
 </result>
</GeocodeResponse>
<GeocodeResponse>
 <status>OK</status>
 <result>
  <type>point_of_interest</type>
  <type>establishment</type>
  <formatted_address>Gymnase de Buzancais, Avenue du 8 Mai, 36500 Buzançais, France</formatted_address>
  <address_component>
   <long_name>Gymnase de Buzancais</long_name>
   <short_name>Gymnase de Buzancais</short_name>
   <type>point_of_interest</type>
   <type>establishment</type>
  </address_component>
  <address_component>
   <long_name>Avenue du 8 Mai</long_name>
   <short_name>Av. du 8 Mai</short_name>
   <type>route</type>
  </address_component>
  <address_component>
   <long_name>Buzançais</long_name>
   <short_name>Buzançais</short_name>
   <type>locality</type>
   <type>political</type>
  </address_component>
  <address_component>
   <long_name>Indre</long_name>
   <short_name>36</short_name>
   <type>administrative_area_level_2</type>
   <type>political</type>
  </address_component>
  <address_component>
   <long_name>Centre</long_name>
   <short_name>Centre</short_name>
   <type>administrative_area_level_1</type>
   <type>political</type>
  </address_component>
  <address_component>
   <long_name>France</long_name>
   <short_name>FR</short_name>
   <type>country</type>
   <type>political</type>
  </address_component>
  <address_component>
   <long_name>36500</long_name>
   <short_name>36500</short_name>
   <type>postal_code</type>
  </address_component>
  <geometry>
   <location>
    <lat>46.8909597</lat>
    <lng>1.4329654</lng>
   </location>
   <location_type>APPROXIMATE</location_type>
   <viewport>
    <southwest>
     <lat>46.8896107</lat>
     <lng>1.4316164</lng>
    </southwest>
    <northeast>
     <lat>46.8923087</lat>
     <lng>1.4343144</lng>
    </northeast>
   </viewport>
  </geometry>
  <partial_match>true</partial_match>
 </result>
 <result>
  <type>church</type>
  <type>place_of_worship</type>
  <type>point_of_interest</type>
  <type>establishment</type>
  <formatted_address>Paroisse de Buzancais, 11 Rue Victor Hugo, 36500 Buzançais, France</formatted_address>
  <address_component>
   <long_name>Paroisse de Buzancais</long_name>
   <short_name>Paroisse de Buzancais</short_name>
   <type>point_of_interest</type>
   <type>establishment</type>
  </address_component>
  <address_component>
   <long_name>11</long_name>
   <short_name>11</short_name>
   <type>street_number</type>
  </address_component>
  <address_component>
   <long_name>Rue Victor Hugo</long_name>
   <short_name>Rue Victor Hugo</short_name>
   <type>route</type>
  </address_component>
  <address_component>
   <long_name>Buzançais</long_name>
   <short_name>Buzançais</short_name>
   <type>locality</type>
   <type>political</type>
  </address_component>
  <address_component>
   <long_name>Indre</long_name>
   <short_name>36</short_name>
   <type>administrative_area_level_2</type>
   <type>political</type>
  </address_component>
  <address_component>
   <long_name>Centre</long_name>
   <short_name>Centre</short_name>
   <type>administrative_area_level_1</type>
   <type>political</type>
  </address_component>
  <address_component>
   <long_name>France</long_name>
   <short_name>FR</short_name>
   <type>country</type>
   <type>political</type>
  </address_component>
  <address_component>
   <long_name>36500</long_name>
   <short_name>36500</short_name>
   <type>postal_code</type>
  </address_component>
  <geometry>
   <location>
    <lat>46.8891802</lat>
    <lng>1.4239702</lng>
   </location>
   <location_type>APPROXIMATE</location_type>
   <viewport>
    <southwest>
     <lat>46.8878312</lat>
     <lng>1.4226212</lng>
    </southwest>
    <northeast>
     <lat>46.8905292</lat>
     <lng>1.4253192</lng>
    </northeast>
   </viewport>
  </geometry>
  <partial_match>true</partial_match>
 </result>
 <result>
  <type>hospital</type>
  <type>establishment</type>
  <formatted_address>Hôpital local Saint-Roch (Buzançais), 1 Rue Notre Dame, 36500 Buzançais, France</formatted_address>
  <address_component>
   <long_name>Hôpital local Saint-Roch (Buzançais)</long_name>
   <short_name>Hôpital local Saint-Roch (Buzançais)</short_name>
   <type>establishment</type>
  </address_component>
  <address_component>
   <long_name>1</long_name>
   <short_name>1</short_name>
   <type>street_number</type>
  </address_component>
  <address_component>
   <long_name>Rue Notre Dame</long_name>
   <short_name>Rue Notre Dame</short_name>
   <type>route</type>
  </address_component>
  <address_component>
   <long_name>Buzançais</long_name>
   <short_name>Buzançais</short_name>
   <type>locality</type>
   <type>political</type>
  </address_component>
  <address_component>
   <long_name>Indre</long_name>
   <short_name>36</short_name>
   <type>administrative_area_level_2</type>
   <type>political</type>
  </address_component>
  <address_component>
   <long_name>Centre</long_name>
   <short_name>Centre</short_name>
   <type>administrative_area_level_1</type>
   <type>political</type>
  </address_component>
  <address_component>
   <long_name>France</long_name>
   <short_name>FR</short_name>
   <type>country</type>
   <type>political</type>
  </address_component>
  <address_component>
   <long_name>36500</long_name>
   <short_name>36500</short_name>
   <type>postal_code</type>
  </address_component>
  <geometry>
   <location>
    <lat>46.8929577</lat>
    <lng>1.4209970</lng>
   </location>
   <location_type>APPROXIMATE</location_type>
   <viewport>
    <southwest>
     <lat>46.8905550</lat>
     <lng>1.4192064</lng>
    </southwest>
    <northeast>
     <lat>46.8932529</lat>
     <lng>1.4219044</lng>
    </northeast>
   </viewport>
   <bounds>
    <southwest>
     <lat>46.8908448</lat>
     <lng>1.4194602</lng>
    </southwest>
    <northeast>
     <lat>46.8929631</lat>
     <lng>1.4216506</lng>
    </northeast>
   </bounds>
  </geometry>
  <partial_match>true</partial_match>
 </result>
 <result>
  <type>point_of_interest</type>
  <type>establishment</type>
  <formatted_address>A.C.S.B Alliance Club Sportif Buzançais, Avenue des Prés du Mez, 36500 Buzançais, France</formatted_address>
  <address_component>
   <long_name>A.C.S.B Alliance Club Sportif Buzançais</long_name>
   <short_name>A.C.S.B Alliance Club Sportif Buzançais</short_name>
   <type>point_of_interest</type>
   <type>establishment</type>
  </address_component>
  <address_component>
   <long_name>Avenue des Prés du Mez</long_name>
   <short_name>Av. des Prés du Mez</short_name>
   <type>route</type>
  </address_component>
  <address_component>
   <long_name>Buzançais</long_name>
   <short_name>Buzançais</short_name>
   <type>locality</type>
   <type>political</type>
  </address_component>
  <address_component>
   <long_name>Indre</long_name>
   <short_name>36</short_name>
   <type>administrative_area_level_2</type>
   <type>political</type>
  </address_component>
  <address_component>
   <long_name>Centre</long_name>
   <short_name>Centre</short_name>
   <type>administrative_area_level_1</type>
   <type>political</type>
  </address_component>
  <address_component>
   <long_name>France</long_name>
   <short_name>FR</short_name>
   <type>country</type>
   <type>political</type>
  </address_component>
  <address_component>
   <long_name>36500</long_name>
   <short_name>36500</short_name>
   <type>postal_code</type>
  </address_component>
  <geometry>
   <location>
    <lat>46.8947590</lat>
    <lng>1.4364576</lng>
   </location>
   <location_type>APPROXIMATE</location_type>
   <viewport>
    <southwest>
     <lat>46.8934100</lat>
     <lng>1.4351086</lng>
    </southwest>
    <northeast>
     <lat>46.8961080</lat>
     <lng>1.4378066</lng>
    </northeast>
   </viewport>
  </geometry>
  <partial_match>true</partial_match>
 </result>
 <result>
  <type>street_address</type>
  <formatted_address>36 Route du Buzançais, 36500 Villegouin, France</formatted_address>
  <address_component>
   <long_name>36</long_name>
   <short_name>36</short_name>
   <type>street_number</type>
  </address_component>
  <address_component>
   <long_name>Route du Buzançais</long_name>
   <short_name>Route du Buzançais</short_name>
   <type>route</type>
  </address_component>
  <address_component>
   <long_name>Villegouin</long_name>
   <short_name>Villegouin</short_name>
   <type>locality</type>
   <type>political</type>
  </address_component>
  <address_component>
   <long_name>Indre</long_name>
   <short_name>36</short_name>
   <type>administrative_area_level_2</type>
   <type>political</type>
  </address_component>
  <address_component>
   <long_name>Centre</long_name>
   <short_name>Centre</short_name>
   <type>administrative_area_level_1</type>
   <type>political</type>
  </address_component>
  <address_component>
   <long_name>France</long_name>
   <short_name>FR</short_name>
   <type>country</type>
   <type>political</type>
  </address_component>
  <address_component>
   <long_name>36500</long_name>
   <short_name>36500</short_name>
   <type>postal_code</type>
  </address_component>
  <geometry>
   <location>
    <lat>46.9575916</lat>
    <lng>1.3808175</lng>
   </location>
   <location_type>RANGE_INTERPOLATED</location_type>
   <viewport>
    <southwest>
     <lat>46.9562460</lat>
     <lng>1.3794763</lng>
    </southwest>
    <northeast>
     <lat>46.9589439</lat>
     <lng>1.3821743</lng>
    </northeast>
   </viewport>
   <bounds>
    <southwest>
     <lat>46.9575916</lat>
     <lng>1.3808175</lng>
    </southwest>
    <northeast>
     <lat>46.9575983</lat>
     <lng>1.3808331</lng>
    </northeast>
   </bounds>
  </geometry>
  <partial_match>true</partial_match>
 </result>
 <result>
  <type>route</type>
  <formatted_address>Route de Buzançais, 36500 Vendœuvres, France</formatted_address>
  <address_component>
   <long_name>Route de Buzançais</long_name>
   <short_name>Route de Buzançais</short_name>
   <type>route</type>
  </address_component>
  <address_component>
   <long_name>Vendœuvres</long_name>
   <short_name>Vendœuvres</short_name>
   <type>locality</type>
   <type>political</type>
  </address_component>
  <address_component>
   <long_name>Indre</long_name>
   <short_name>36</short_name>
   <type>administrative_area_level_2</type>
   <type>political</type>
  </address_component>
  <address_component>
   <long_name>Centre</long_name>
   <short_name>Centre</short_name>
   <type>administrative_area_level_1</type>
   <type>political</type>
  </address_component>
  <address_component>
   <long_name>France</long_name>
   <short_name>FR</short_name>
   <type>country</type>
   <type>political</type>
  </address_component>
  <address_component>
   <long_name>36500</long_name>
   <short_name>36500</short_name>
   <type>postal_code</type>
  </address_component>
  <geometry>
   <location>
    <lat>46.8101420</lat>
    <lng>1.3755260</lng>
   </location>
   <location_type>GEOMETRIC_CENTER</location_type>
   <viewport>
    <southwest>
     <lat>46.8043539</lat>
     <lng>1.3744388</lng>
    </southwest>
    <northeast>
     <lat>46.8159611</lat>
     <lng>1.3771367</lng>
    </northeast>
   </viewport>
   <bounds>
    <southwest>
     <lat>46.8043539</lat>
     <lng>1.3746810</lng>
    </southwest>
    <northeast>
     <lat>46.8159611</lat>
     <lng>1.3768945</lng>
    </northeast>
   </bounds>
  </geometry>
  <partial_match>true</partial_match>
 </result>
 <result>
  <type>route</type>
  <formatted_address>Route du Buzançais, 36500 Argy, France</formatted_address>
  <address_component>
   <long_name>Route du Buzançais</long_name>
   <short_name>Route du Buzançais</short_name>
   <type>route</type>
  </address_component>
  <address_component>
   <long_name>Argy</long_name>
   <short_name>Argy</short_name>
   <type>locality</type>
   <type>political</type>
  </address_component>
  <address_component>
   <long_name>Indre</long_name>
   <short_name>36</short_name>
   <type>administrative_area_level_2</type>
   <type>political</type>
  </address_component>
  <address_component>
   <long_name>Centre</long_name>
   <short_name>Centre</short_name>
   <type>administrative_area_level_1</type>
   <type>political</type>
  </address_component>
  <address_component>
   <long_name>France</long_name>
   <short_name>FR</short_name>
   <type>country</type>
   <type>political</type>
  </address_component>
  <address_component>
   <long_name>36500</long_name>
   <short_name>36500</short_name>
   <type>postal_code</type>
  </address_component>
  <geometry>
   <location>
    <lat>46.9368896</lat>
    <lng>1.4369741</lng>
   </location>
   <location_type>GEOMETRIC_CENTER</location_type>
   <viewport>
    <southwest>
     <lat>46.9355691</lat>
     <lng>1.4356468</lng>
    </southwest>
    <northeast>
     <lat>46.9382670</lat>
     <lng>1.4383447</lng>
    </northeast>
   </viewport>
   <bounds>
    <southwest>
     <lat>46.9357188</lat>
     <lng>1.4369046</lng>
    </southwest>
    <northeast>
     <lat>46.9381173</lat>
     <lng>1.4370869</lng>
    </northeast>
   </bounds>
  </geometry>
  <partial_match>true</partial_match>
 </result>
 <result>
  <type>route</type>
  <formatted_address>Route de Buzançais, 36500 La Chapelle-Orthemale, France</formatted_address>
  <address_component>
   <long_name>Route de Buzançais</long_name>
   <short_name>Route de Buzançais</short_name>
   <type>route</type>
  </address_component>
  <address_component>
   <long_name>La Chapelle-Orthemale</long_name>
   <short_name>La Chapelle-Orthemale</short_name>
   <type>locality</type>
   <type>political</type>
  </address_component>
  <address_component>
   <long_name>Indre</long_name>
   <short_name>36</short_name>
   <type>administrative_area_level_2</type>
   <type>political</type>
  </address_component>
  <address_component>
   <long_name>Centre</long_name>
   <short_name>Centre</short_name>
   <type>administrative_area_level_1</type>
   <type>political</type>
  </address_component>
  <address_component>
   <long_name>France</long_name>
   <short_name>FR</short_name>
   <type>country</type>
   <type>political</type>
  </address_component>
  <address_component>
   <long_name>36500</long_name>
   <short_name>36500</short_name>
   <type>postal_code</type>
  </address_component>
  <geometry>
   <location>
    <lat>46.8450450</lat>
    <lng>1.4522750</lng>
   </location>
   <location_type>GEOMETRIC_CENTER</location_type>
   <viewport>
    <southwest>
     <lat>46.8432660</lat>
     <lng>1.4505260</lng>
    </southwest>
    <northeast>
     <lat>46.8466730</lat>
     <lng>1.4532240</lng>
    </northeast>
   </viewport>
   <bounds>
    <southwest>
     <lat>46.8432660</lat>
     <lng>1.4512930</lng>
    </southwest>
    <northeast>
     <lat>46.8466730</lat>
     <lng>1.4524570</lng>
    </northeast>
   </bounds>
  </geometry>
  <partial_match>true</partial_match>
 </result>
 <result>
  <type>route</type>
  <formatted_address>Route de Buzançais, 36500 Sainte-Gemme, France</formatted_address>
  <address_component>
   <long_name>Route de Buzançais</long_name>
   <short_name>Route de Buzançais</short_name>
   <type>route</type>
  </address_component>
  <address_component>
   <long_name>Sainte-Gemme</long_name>
   <short_name>Sainte-Gemme</short_name>
   <type>locality</type>
   <type>political</type>
  </address_component>
  <address_component>
   <long_name>Indre</long_name>
   <short_name>36</short_name>
   <type>administrative_area_level_2</type>
   <type>political</type>
  </address_component>
  <address_component>
   <long_name>Centre</long_name>
   <short_name>Centre</short_name>
   <type>administrative_area_level_1</type>
   <type>political</type>
  </address_component>
  <address_component>
   <long_name>France</long_name>
   <short_name>FR</short_name>
   <type>country</type>
   <type>political</type>
  </address_component>
  <address_component>
   <long_name>36500</long_name>
   <short_name>36500</short_name>
   <type>postal_code</type>
  </address_component>
  <geometry>
   <location>
    <lat>46.8530211</lat>
    <lng>1.3412015</lng>
   </location>
   <location_type>GEOMETRIC_CENTER</location_type>
   <viewport>
    <southwest>
     <lat>46.8517904</lat>
     <lng>1.3401715</lng>
    </southwest>
    <northeast>
     <lat>46.8544884</lat>
     <lng>1.3430525</lng>
    </northeast>
   </viewport>
   <bounds>
    <southwest>
     <lat>46.8527533</lat>
     <lng>1.3401715</lng>
    </southwest>
    <northeast>
     <lat>46.8535255</lat>
     <lng>1.3430525</lng>
    </northeast>
   </bounds>
  </geometry>
  <partial_match>true</partial_match>
 </result>
</GeocodeResponse>
<GeocodeResponse>
 <status>OK</status>
 <result>
  <type>locality</type>
  <type>political</type>
  <formatted_address>Bressolles, France</formatted_address>
  <address_component>
   <long_name>Bressolles</long_name>
   <short_name>Bressolles</short_name>
   <type>locality</type>
   <type>political</type>
  </address_component>
  <address_component>
   <long_name>Allier</long_name>
   <short_name>03</short_name>
   <type>administrative_area_level_2</type>
   <type>political</type>
  </address_component>
  <address_component>
   <long_name>Auvergne</long_name>
   <short_name>Auvergne</short_name>
   <type>administrative_area_level_1</type>
   <type>political</type>
  </address_component>
  <address_component>
   <long_name>France</long_name>
   <short_name>FR</short_name>
   <type>country</type>
   <type>political</type>
  </address_component>
  <geometry>
   <location>
    <lat>46.5308430</lat>
    <lng>3.3171630</lng>
   </location>
   <location_type>APPROXIMATE</location_type>
   <viewport>
    <southwest>
     <lat>46.5040840</lat>
     <lng>3.2375310</lng>
    </southwest>
    <northeast>
     <lat>46.5552840</lat>
     <lng>3.3383090</lng>
    </northeast>
   </viewport>
   <bounds>
    <southwest>
     <lat>46.5040840</lat>
     <lng>3.2375310</lng>
    </southwest>
    <northeast>
     <lat>46.5552840</lat>
     <lng>3.3383090</lng>
    </northeast>
   </bounds>
  </geometry>
  <partial_match>true</partial_match>
 </result>
</GeocodeResponse>
<GeocodeResponse>
 <status>OK</status>
 <result>
  <type>train_station</type>
  <type>transit_station</type>
  <type>establishment</type>
  <formatted_address>Lyss, 3250 Lyss, Switzerland</formatted_address>
  <address_component>
   <long_name>Lyss</long_name>
   <short_name>Lyss</short_name>
   <type>train_station</type>
   <type>transit_station</type>
   <type>establishment</type>
  </address_component>
  <address_component>
   <long_name>Lyss</long_name>
   <short_name>Lyss</short_name>
   <type>locality</type>
   <type>political</type>
  </address_component>
  <address_component>
   <long_name>Aarberg District</long_name>
   <short_name>Aarberg District</short_name>
   <type>administrative_area_level_2</type>
   <type>political</type>
  </address_component>
  <address_component>
   <long_name>Canton of Bern</long_name>
   <short_name>BE</short_name>
   <type>administrative_area_level_1</type>
   <type>political</type>
  </address_component>
  <address_component>
   <long_name>Switzerland</long_name>
   <short_name>CH</short_name>
   <type>country</type>
   <type>political</type>
  </address_component>
  <address_component>
   <long_name>3250</long_name>
   <short_name>3250</short_name>
   <type>postal_code</type>
  </address_component>
  <geometry>
   <location>
    <lat>47.0763156</lat>
    <lng>7.3062982</lng>
   </location>
   <location_type>APPROXIMATE</location_type>
   <viewport>
    <southwest>
     <lat>47.0749666</lat>
     <lng>7.3049492</lng>
    </southwest>
    <northeast>
     <lat>47.0776646</lat>
     <lng>7.3076472</lng>
    </northeast>
   </viewport>
  </geometry>
  <partial_match>true</partial_match>
 </result>
</GeocodeResponse>
<GeocodeResponse>
 <status>OVER_QUERY_LIMIT</status>
 <error_message>You have exceeded your rate-limit for this API.</error_message>
</GeocodeResponse>
<GeocodeResponse>
 <status>OVER_QUERY_LIMIT</status>
 <error_message>You have exceeded your rate-limit for this API.</error_message>
</GeocodeResponse>
<GeocodeResponse>
 <status>OVER_QUERY_LIMIT</status>
 <error_message>You have exceeded your rate-limit for this API.</error_message>
</GeocodeResponse>
<GeocodeResponse>
 <status>OVER_QUERY_LIMIT</status>
 <error_message>You have exceeded your rate-limit for this API.</error_message>
</GeocodeResponse>
<GeocodeResponse>
 <status>OVER_QUERY_LIMIT</status>
 <error_message>You have exceeded your rate-limit for this API.</error_message>
</GeocodeResponse>
<GeocodeResponse>
 <status>OVER_QUERY_LIMIT</status>
 <error_message>You have exceeded your rate-limit for this API.</error_message>
</GeocodeResponse>
<GeocodeResponse>
 <status>OVER_QUERY_LIMIT</status>
 <error_message>You have exceeded your rate-limit for this API.</error_message>
</GeocodeResponse>
<GeocodeResponse>
 <status>OVER_QUERY_LIMIT</status>
 <error_message>You have exceeded your rate-limit for this API.</error_message>
</GeocodeResponse>
<GeocodeResponse>
 <status>OVER_QUERY_LIMIT</status>
 <error_message>You have exceeded your rate-limit for this API.</error_message>
</GeocodeResponse>
<GeocodeResponse>
 <status>OVER_QUERY_LIMIT</status>
 <error_message>You have exceeded your rate-limit for this API.</error_message>
</GeocodeResponse>
<GeocodeResponse>
 <status>OVER_QUERY_LIMIT</status>
 <error_message>You have exceeded your rate-limit for this API.</error_message>
</GeocodeResponse>
<GeocodeResponse>
 <status>ZERO_RESULTS</status>
</GeocodeResponse>
<GeocodeResponse>
 <status>OK</status>
 <result>
  <type>route</type>
  <formatted_address>Rue Louis Delage, 72650 La Chapelle-Saint-Aubin, France</formatted_address>
  <address_component>
   <long_name>Rue Louis Delage</long_name>
   <short_name>Rue Louis Delage</short_name>
   <type>route</type>
  </address_component>
  <address_component>
   <long_name>La Chapelle-Saint-Aubin</long_name>
   <short_name>La Chapelle-Saint-Aubin</short_name>
   <type>locality</type>
   <type>political</type>
  </address_component>
  <address_component>
   <long_name>Sarthe</long_name>
   <short_name>72</short_name>
   <type>administrative_area_level_2</type>
   <type>political</type>
  </address_component>
  <address_component>
   <long_name>Pays de la Loire</long_name>
   <short_name>Pays de la Loire</short_name>
   <type>administrative_area_level_1</type>
   <type>political</type>
  </address_component>
  <address_component>
   <long_name>France</long_name>
   <short_name>FR</short_name>
   <type>country</type>
   <type>political</type>
  </address_component>
  <address_component>
   <long_name>72650</long_name>
   <short_name>72650</short_name>
   <type>postal_code</type>
  </address_component>
  <geometry>
   <location>
    <lat>48.0342944</lat>
    <lng>0.1743073</lng>
   </location>
   <location_type>GEOMETRIC_CENTER</location_type>
   <viewport>
    <southwest>
     <lat>48.0329454</lat>
     <lng>0.1729583</lng>
    </southwest>
    <northeast>
     <lat>48.0356434</lat>
     <lng>0.1756563</lng>
    </northeast>
   </viewport>
  </geometry>
  <partial_match>true</partial_match>
 </result>
</GeocodeResponse>
<GeocodeResponse>
 <status>ZERO_RESULTS</status>
</GeocodeResponse>
<GeocodeResponse>
 <status>ZERO_RESULTS</status>
</GeocodeResponse>
<GeocodeResponse>
 <status>ZERO_RESULTS</status>
</GeocodeResponse>
<GeocodeResponse>
 <status>ZERO_RESULTS</status>
</GeocodeResponse>
<GeocodeResponse>
 <status>ZERO_RESULTS</status>
</GeocodeResponse>
<GeocodeResponse>
 <status>OK</status>
 <result>
  <type>locality</type>
  <type>political</type>
  <formatted_address>Liposthey, France</formatted_address>
  <address_component>
   <long_name>Liposthey</long_name>
   <short_name>Liposthey</short_name>
   <type>locality</type>
   <type>political</type>
  </address_component>
  <address_component>
   <long_name>Landes</long_name>
   <short_name>40</short_name>
   <type>administrative_area_level_2</type>
   <type>political</type>
  </address_component>
  <address_component>
   <long_name>Aquitaine</long_name>
   <short_name>Aquitaine</short_name>
   <type>administrative_area_level_1</type>
   <type>political</type>
  </address_component>
  <address_component>
   <long_name>France</long_name>
   <short_name>FR</short_name>
   <type>country</type>
   <type>political</type>
  </address_component>
  <geometry>
   <location>
    <lat>44.3190780</lat>
    <lng>-0.8769080</lng>
   </location>
   <location_type>APPROXIMATE</location_type>
   <viewport>
    <southwest>
     <lat>44.2625030</lat>
     <lng>-0.9214040</lng>
    </southwest>
    <northeast>
     <lat>44.3455270</lat>
     <lng>-0.8444390</lng>
    </northeast>
   </viewport>
   <bounds>
    <southwest>
     <lat>44.2625030</lat>
     <lng>-0.9214040</lng>
    </southwest>
    <northeast>
     <lat>44.3455270</lat>
     <lng>-0.8444390</lng>
    </northeast>
   </bounds>
  </geometry>
  <partial_match>true</partial_match>
 </result>
</GeocodeResponse>
<GeocodeResponse>
 <status>OK</status>
 <result>
  <type>locality</type>
  <type>political</type>
  <formatted_address>Vergèze, France</formatted_address>
  <address_component>
   <long_name>Vergèze</long_name>
   <short_name>Vergèze</short_name>
   <type>locality</type>
   <type>political</type>
  </address_component>
  <address_component>
   <long_name>Gard</long_name>
   <short_name>30</short_name>
   <type>administrative_area_level_2</type>
   <type>political</type>
  </address_component>
  <address_component>
   <long_name>Languedoc-Roussillon</long_name>
   <short_name>Languedoc-Roussillon</short_name>
   <type>administrative_area_level_1</type>
   <type>political</type>
  </address_component>
  <address_component>
   <long_name>France</long_name>
   <short_name>FR</short_name>
   <type>country</type>
   <type>political</type>
  </address_component>
  <geometry>
   <location>
    <lat>43.7435220</lat>
    <lng>4.2206950</lng>
   </location>
   <location_type>APPROXIMATE</location_type>
   <viewport>
    <southwest>
     <lat>43.7100160</lat>
     <lng>4.2011740</lng>
    </southwest>
    <northeast>
     <lat>43.7582270</lat>
     <lng>4.2652570</lng>
    </northeast>
   </viewport>
   <bounds>
    <southwest>
     <lat>43.7100160</lat>
     <lng>4.2011740</lng>
    </southwest>
    <northeast>
     <lat>43.7582270</lat>
     <lng>4.2652570</lng>
    </northeast>
   </bounds>
  </geometry>
  <partial_match>true</partial_match>
 </result>
</GeocodeResponse>
<GeocodeResponse>
 <status>ZERO_RESULTS</status>
</GeocodeResponse>
<GeocodeResponse>
 <status>OK</status>
 <result>
  <type>point_of_interest</type>
  <type>establishment</type>
  <formatted_address>Lycée Jehan de Chelles SA, 47 Rue des Cités, 77500 Chelles, France</formatted_address>
  <address_component>
   <long_name>Lycée Jehan de Chelles SA</long_name>
   <short_name>Lycée Jehan de Chelles SA</short_name>
   <type>point_of_interest</type>
   <type>establishment</type>
  </address_component>
  <address_component>
   <long_name>47</long_name>
   <short_name>47</short_name>
   <type>street_number</type>
  </address_component>
  <address_component>
   <long_name>Rue des Cités</long_name>
   <short_name>Rue des Cités</short_name>
   <type>route</type>
  </address_component>
  <address_component>
   <long_name>Chelles</long_name>
   <short_name>Chelles</short_name>
   <type>locality</type>
   <type>political</type>
  </address_component>
  <address_component>
   <long_name>Seine-et-Marne</long_name>
   <short_name>77</short_name>
   <type>administrative_area_level_2</type>
   <type>political</type>
  </address_component>
  <address_component>
   <long_name>Île-de-France</long_name>
   <short_name>IDF</short_name>
   <type>administrative_area_level_1</type>
   <type>political</type>
  </address_component>
  <address_component>
   <long_name>France</long_name>
   <short_name>FR</short_name>
   <type>country</type>
   <type>political</type>
  </address_component>
  <address_component>
   <long_name>77500</long_name>
   <short_name>77500</short_name>
   <type>postal_code</type>
  </address_component>
  <geometry>
   <location>
    <lat>48.8887044</lat>
    <lng>2.6122186</lng>
   </location>
   <location_type>APPROXIMATE</location_type>
   <viewport>
    <southwest>
     <lat>48.8873554</lat>
     <lng>2.6108696</lng>
    </southwest>
    <northeast>
     <lat>48.8900534</lat>
     <lng>2.6135676</lng>
    </northeast>
   </viewport>
  </geometry>
  <partial_match>true</partial_match>
 </result>
 <result>
  <type>church</type>
  <type>place_of_worship</type>
  <type>point_of_interest</type>
  <type>establishment</type>
  <formatted_address>Paroisse catholique de Chelles, 39 Avenue de la Résistance, 77500 Chelles, France</formatted_address>
  <address_component>
   <long_name>Paroisse catholique de Chelles</long_name>
   <short_name>Paroisse catholique de Chelles</short_name>
   <type>point_of_interest</type>
   <type>establishment</type>
  </address_component>
  <address_component>
   <long_name>39</long_name>
   <short_name>39</short_name>
   <type>street_number</type>
  </address_component>
  <address_component>
   <long_name>Avenue de la Résistance</long_name>
   <short_name>Av. de la Résistance</short_name>
   <type>route</type>
  </address_component>
  <address_component>
   <long_name>Chelles</long_name>
   <short_name>Chelles</short_name>
   <type>locality</type>
   <type>political</type>
  </address_component>
  <address_component>
   <long_name>Seine-et-Marne</long_name>
   <short_name>77</short_name>
   <type>administrative_area_level_2</type>
   <type>political</type>
  </address_component>
  <address_component>
   <long_name>Île-de-France</long_name>
   <short_name>IDF</short_name>
   <type>administrative_area_level_1</type>
   <type>political</type>
  </address_component>
  <address_component>
   <long_name>France</long_name>
   <short_name>FR</short_name>
   <type>country</type>
   <type>political</type>
  </address_component>
  <address_component>
   <long_name>77500</long_name>
   <short_name>77500</short_name>
   <type>postal_code</type>
  </address_component>
  <geometry>
   <location>
    <lat>48.8766705</lat>
    <lng>2.5850344</lng>
   </location>
   <location_type>APPROXIMATE</location_type>
   <viewport>
    <southwest>
     <lat>48.8753215</lat>
     <lng>2.5836854</lng>
    </southwest>
    <northeast>
     <lat>48.8780195</lat>
     <lng>2.5863834</lng>
    </northeast>
   </viewport>
  </geometry>
  <partial_match>true</partial_match>
 </result>
 <result>
  <type>city_hall</type>
  <type>local_government_office</type>
  <type>point_of_interest</type>
  <type>locality</type>
  <type>political</type>
  <type>establishment</type>
  <formatted_address>Commune de Chelles, Avenue de la Résistance, 77500 Chelles, France</formatted_address>
  <address_component>
   <long_name>Commune de Chelles</long_name>
   <short_name>Commune de Chelles</short_name>
   <type>point_of_interest</type>
   <type>establishment</type>
  </address_component>
  <address_component>
   <long_name>Avenue de la Résistance</long_name>
   <short_name>Av. de la Résistance</short_name>
   <type>route</type>
  </address_component>
  <address_component>
   <long_name>Chelles</long_name>
   <short_name>Chelles</short_name>
   <type>locality</type>
   <type>political</type>
  </address_component>
  <address_component>
   <long_name>Seine-et-Marne</long_name>
   <short_name>77</short_name>
   <type>administrative_area_level_2</type>
   <type>political</type>
  </address_component>
  <address_component>
   <long_name>Île-de-France</long_name>
   <short_name>IDF</short_name>
   <type>administrative_area_level_1</type>
   <type>political</type>
  </address_component>
  <address_component>
   <long_name>France</long_name>
   <short_name>FR</short_name>
   <type>country</type>
   <type>political</type>
  </address_component>
  <address_component>
   <long_name>77500</long_name>
   <short_name>77500</short_name>
   <type>postal_code</type>
  </address_component>
  <geometry>
   <location>
    <lat>48.8767903</lat>
    <lng>2.5852018</lng>
   </location>
   <location_type>APPROXIMATE</location_type>
   <viewport>
    <southwest>
     <lat>48.8754413</lat>
     <lng>2.5838528</lng>
    </southwest>
    <northeast>
     <lat>48.8781393</lat>
     <lng>2.5865508</lng>
    </northeast>
   </viewport>
  </geometry>
  <partial_match>true</partial_match>
 </result>
 <result>
  <type>city_hall</type>
  <type>local_government_office</type>
  <type>point_of_interest</type>
  <type>locality</type>
  <type>political</type>
  <type>establishment</type>
  <formatted_address>Mairie de Chelles, Parc du souvenir Emile Fouchard, 77500 Chelles, France</formatted_address>
  <address_component>
   <long_name>Mairie de Chelles</long_name>
   <short_name>Mairie de Chelles</short_name>
   <type>point_of_interest</type>
   <type>establishment</type>
  </address_component>
  <address_component>
   <long_name>Parc du souvenir Emile Fouchard</long_name>
   <short_name>Parc du souvenir Emile Fouchard</short_name>
   <type>route</type>
  </address_component>
  <address_component>
   <long_name>Chelles</long_name>
   <short_name>Chelles</short_name>
   <type>locality</type>
   <type>political</type>
  </address_component>
  <address_component>
   <long_name>Seine-et-Marne</long_name>
   <short_name>77</short_name>
   <type>administrative_area_level_2</type>
   <type>political</type>
  </address_component>
  <address_component>
   <long_name>Île-de-France</long_name>
   <short_name>IDF</short_name>
   <type>administrative_area_level_1</type>
   <type>political</type>
  </address_component>
  <address_component>
   <long_name>France</long_name>
   <short_name>FR</short_name>
   <type>country</type>
   <type>political</type>
  </address_component>
  <address_component>
   <long_name>77500</long_name>
   <short_name>77500</short_name>
   <type>postal_code</type>
  </address_component>
  <geometry>
   <location>
    <lat>48.8777868</lat>
    <lng>2.5898149</lng>
   </location>
   <location_type>APPROXIMATE</location_type>
   <viewport>
    <southwest>
     <lat>48.8764378</lat>
     <lng>2.5884659</lng>
    </southwest>
    <northeast>
     <lat>48.8791358</lat>
     <lng>2.5911639</lng>
    </northeast>
   </viewport>
  </geometry>
  <partial_match>true</partial_match>
 </result>
 <result>
  <type>route</type>
  <formatted_address>Rue de Chelles, 77500 Chelles, France</formatted_address>
  <address_component>
   <long_name>Rue de Chelles</long_name>
   <short_name>Rue de Chelles</short_name>
   <type>route</type>
  </address_component>
  <address_component>
   <long_name>Chelles</long_name>
   <short_name>Chelles</short_name>
   <type>locality</type>
   <type>political</type>
  </address_component>
  <address_component>
   <long_name>Seine-et-Marne</long_name>
   <short_name>77</short_name>
   <type>administrative_area_level_2</type>
   <type>political</type>
  </address_component>
  <address_component>
   <long_name>Île-de-France</long_name>
   <short_name>IDF</short_name>
   <type>administrative_area_level_1</type>
   <type>political</type>
  </address_component>
  <address_component>
   <long_name>France</long_name>
   <short_name>FR</short_name>
   <type>country</type>
   <type>political</type>
  </address_component>
  <address_component>
   <long_name>77500</long_name>
   <short_name>77500</short_name>
   <type>postal_code</type>
  </address_component>
  <geometry>
   <location>
    <lat>48.8843960</lat>
    <lng>2.6197055</lng>
   </location>
   <location_type>GEOMETRIC_CENTER</location_type>
   <viewport>
    <southwest>
     <lat>48.8823095</lat>
     <lng>2.6178818</lng>
    </southwest>
    <northeast>
     <lat>48.8850075</lat>
     <lng>2.6205797</lng>
    </northeast>
   </viewport>
   <bounds>
    <southwest>
     <lat>48.8829210</lat>
     <lng>2.6187197</lng>
    </southwest>
    <northeast>
     <lat>48.8843960</lat>
     <lng>2.6197418</lng>
    </northeast>
   </bounds>
  </geometry>
  <partial_match>true</partial_match>
 </result>
 <result>
  <type>point_of_interest</type>
  <type>establishment</type>
  <formatted_address>Maison Départementale des Solidarités de Chelles, Avenue Gendarme Castermant, 77500 Chelles, France</formatted_address>
  <address_component>
   <long_name>Maison Départementale des Solidarités de Chelles</long_name>
   <short_name>Maison Départementale des Solidarités de Chelles</short_name>
   <type>point_of_interest</type>
   <type>establishment</type>
  </address_component>
  <address_component>
   <long_name>Avenue Gendarme Castermant</long_name>
   <short_name>Av. Gendarme Castermant</short_name>
   <type>route</type>
  </address_component>
  <address_component>
   <long_name>Chelles</long_name>
   <short_name>Chelles</short_name>
   <type>locality</type>
   <type>political</type>
  </address_component>
  <address_component>
   <long_name>Seine-et-Marne</long_name>
   <short_name>77</short_name>
   <type>administrative_area_level_2</type>
   <type>political</type>
  </address_component>
  <address_component>
   <long_name>Île-de-France</long_name>
   <short_name>IDF</short_name>
   <type>administrative_area_level_1</type>
   <type>political</type>
  </address_component>
  <address_component>
   <long_name>France</long_name>
   <short_name>FR</short_name>
   <type>country</type>
   <type>political</type>
  </address_component>
  <address_component>
   <long_name>77500</long_name>
   <short_name>77500</short_name>
   <type>postal_code</type>
  </address_component>
  <geometry>
   <location>
    <lat>48.8780576</lat>
    <lng>2.6012127</lng>
   </location>
   <location_type>APPROXIMATE</location_type>
   <viewport>
    <southwest>
     <lat>48.8767086</lat>
     <lng>2.5998637</lng>
    </southwest>
    <northeast>
     <lat>48.8794066</lat>
     <lng>2.6025617</lng>
    </northeast>
   </viewport>
  </geometry>
  <partial_match>true</partial_match>
 </result>
 <result>
  <type>route</type>
  <formatted_address>Avenue Martyrs de Chelles, 77500 Chelles, France</formatted_address>
  <address_component>
   <long_name>Avenue Martyrs de Chelles</long_name>
   <short_name>Av. Martyrs de Chelles</short_name>
   <type>route</type>
  </address_component>
  <address_component>
   <long_name>Chelles</long_name>
   <short_name>Chelles</short_name>
   <type>locality</type>
   <type>political</type>
  </address_component>
  <address_component>
   <long_name>Seine-et-Marne</long_name>
   <short_name>77</short_name>
   <type>administrative_area_level_2</type>
   <type>political</type>
  </address_component>
  <address_component>
   <long_name>Île-de-France</long_name>
   <short_name>IDF</short_name>
   <type>administrative_area_level_1</type>
   <type>political</type>
  </address_component>
  <address_component>
   <long_name>France</long_name>
   <short_name>FR</short_name>
   <type>country</type>
   <type>political</type>
  </address_component>
  <address_component>
   <long_name>77500</long_name>
   <short_name>77500</short_name>
   <type>postal_code</type>
  </address_component>
  <geometry>
   <location>
    <lat>48.8716353</lat>
    <lng>2.5728544</lng>
   </location>
   <location_type>GEOMETRIC_CENTER</location_type>
   <viewport>
    <southwest>
     <lat>48.8701857</lat>
     <lng>2.5701431</lng>
    </southwest>
    <northeast>
     <lat>48.8728837</lat>
     <lng>2.5761790</lng>
    </northeast>
   </viewport>
   <bounds>
    <southwest>
     <lat>48.8705741</lat>
     <lng>2.5701431</lng>
    </southwest>
    <northeast>
     <lat>48.8724953</lat>
     <lng>2.5761790</lng>
    </northeast>
   </bounds>
  </geometry>
  <partial_match>true</partial_match>
 </result>
 <result>
  <type>premise</type>
  <formatted_address>Marché de Chelles, 77500 Chelles, France</formatted_address>
  <address_component>
   <long_name>Marché de Chelles</long_name>
   <short_name>Marché de Chelles</short_name>
   <type>premise</type>
  </address_component>
  <address_component>
   <long_name>Chelles</long_name>
   <short_name>Chelles</short_name>
   <type>locality</type>
   <type>political</type>
  </address_component>
  <address_component>
   <long_name>Seine-et-Marne</long_name>
   <short_name>77</short_name>
   <type>administrative_area_level_2</type>
   <type>political</type>
  </address_component>
  <address_component>
   <long_name>Île-de-France</long_name>
   <short_name>IDF</short_name>
   <type>administrative_area_level_1</type>
   <type>political</type>
  </address_component>
  <address_component>
   <long_name>France</long_name>
   <short_name>FR</short_name>
   <type>country</type>
   <type>political</type>
  </address_component>
  <address_component>
   <long_name>77500</long_name>
   <short_name>77500</short_name>
   <type>postal_code</type>
  </address_component>
  <geometry>
   <location>
    <lat>48.8757332</lat>
    <lng>2.5845603</lng>
   </location>
   <location_type>APPROXIMATE</location_type>
   <viewport>
    <southwest>
     <lat>48.8743184</lat>
     <lng>2.5831686</lng>
    </southwest>
    <northeast>
     <lat>48.8770163</lat>
     <lng>2.5858666</lng>
    </northeast>
   </viewport>
   <bounds>
    <southwest>
     <lat>48.8753428</lat>
     <lng>2.5839543</lng>
    </southwest>
    <northeast>
     <lat>48.8759919</lat>
     <lng>2.5850809</lng>
    </northeast>
   </bounds>
  </geometry>
  <partial_match>true</partial_match>
 </result>
 <result>
  <type>point_of_interest</type>
  <type>establishment</type>
  <formatted_address>Ruines du Moulin de Chelles, 77500 Chelles, France</formatted_address>
  <address_component>
   <long_name>Ruines du Moulin de Chelles</long_name>
   <short_name>Ruines du Moulin de Chelles</short_name>
   <type>point_of_interest</type>
   <type>establishment</type>
  </address_component>
  <address_component>
   <long_name>Chelles</long_name>
   <short_name>Chelles</short_name>
   <type>locality</type>
   <type>political</type>
  </address_component>
  <address_component>
   <long_name>Seine-et-Marne</long_name>
   <short_name>77</short_name>
   <type>administrative_area_level_2</type>
   <type>political</type>
  </address_component>
  <address_component>
   <long_name>Île-de-France</long_name>
   <short_name>IDF</short_name>
   <type>administrative_area_level_1</type>
   <type>political</type>
  </address_component>
  <address_component>
   <long_name>France</long_name>
   <short_name>FR</short_name>
   <type>country</type>
   <type>political</type>
  </address_component>
  <address_component>
   <long_name>77500</long_name>
   <short_name>77500</short_name>
   <type>postal_code</type>
  </address_component>
  <geometry>
   <location>
    <lat>48.8655105</lat>
    <lng>2.5870818</lng>
   </location>
   <location_type>APPROXIMATE</location_type>
   <viewport>
    <southwest>
     <lat>48.8641615</lat>
     <lng>2.5857328</lng>
    </southwest>
    <northeast>
     <lat>48.8668595</lat>
     <lng>2.5884308</lng>
    </northeast>
   </viewport>
  </geometry>
  <partial_match>true</partial_match>
 </result>
 <result>
  <type>route</type>
  <formatted_address>Avenue Jehan de Chelles, 77500 Chelles, France</formatted_address>
  <address_component>
   <long_name>Avenue Jehan de Chelles</long_name>
   <short_name>Av. Jehan de Chelles</short_name>
   <type>route</type>
  </address_component>
  <address_component>
   <long_name>Chelles</long_name>
   <short_name>Chelles</short_name>
   <type>locality</type>
   <type>political</type>
  </address_component>
  <address_component>
   <long_name>Seine-et-Marne</long_name>
   <short_name>77</short_name>
   <type>administrative_area_level_2</type>
   <type>political</type>
  </address_component>
  <address_component>
   <long_name>Île-de-France</long_name>
   <short_name>IDF</short_name>
   <type>administrative_area_level_1</type>
   <type>political</type>
  </address_component>
  <address_component>
   <long_name>France</long_name>
   <short_name>FR</short_name>
   <type>country</type>
   <type>political</type>
  </address_component>
  <address_component>
   <long_name>77500</long_name>
   <short_name>77500</short_name>
   <type>postal_code</type>
  </address_component>
  <geometry>
   <location>
    <lat>48.8772826</lat>
    <lng>2.5790417</lng>
   </location>
   <location_type>GEOMETRIC_CENTER</location_type>
   <viewport>
    <southwest>
     <lat>48.8759306</lat>
     <lng>2.5739580</lng>
    </southwest>
    <northeast>
     <lat>48.8786285</lat>
     <lng>2.5842757</lng>
    </northeast>
   </viewport>
   <bounds>
    <southwest>
     <lat>48.8762620</lat>
     <lng>2.5739580</lng>
    </southwest>
    <northeast>
     <lat>48.8782971</lat>
     <lng>2.5842757</lng>
    </northeast>
   </bounds>
  </geometry>
  <partial_match>true</partial_match>
 </result>
 <result>
  <type>point_of_interest</type>
  <type>establishment</type>
  <formatted_address>Marne et Chantereine Chelles Aménagement, 48 Boulevard Chilperic, 77500 Chelles, France</formatted_address>
  <address_component>
   <long_name>Marne et Chantereine Chelles Aménagement</long_name>
   <short_name>Marne et Chantereine Chelles Aménagement</short_name>
   <type>point_of_interest</type>
   <type>establishment</type>
  </address_component>
  <address_component>
   <long_name>48</long_name>
   <short_name>48</short_name>
   <type>street_number</type>
  </address_component>
  <address_component>
   <long_name>Boulevard Chilperic</long_name>
   <short_name>Bd Chilperic</short_name>
   <type>route</type>
  </address_component>
  <address_component>
   <long_name>Chelles</long_name>
   <short_name>Chelles</short_name>
   <type>locality</type>
   <type>political</type>
  </address_component>
  <address_component>
   <long_name>Seine-et-Marne</long_name>
   <short_name>77</short_name>
   <type>administrative_area_level_2</type>
   <type>political</type>
  </address_component>
  <address_component>
   <long_name>Île-de-France</long_name>
   <short_name>IDF</short_name>
   <type>administrative_area_level_1</type>
   <type>political</type>
  </address_component>
  <address_component>
   <long_name>France</long_name>
   <short_name>FR</short_name>
   <type>country</type>
   <type>political</type>
  </address_component>
  <address_component>
   <long_name>77500</long_name>
   <short_name>77500</short_name>
   <type>postal_code</type>
  </address_component>
  <geometry>
   <location>
    <lat>48.8748464</lat>
    <lng>2.5844678</lng>
   </location>
   <location_type>APPROXIMATE</location_type>
   <viewport>
    <southwest>
     <lat>48.8734974</lat>
     <lng>2.5831188</lng>
    </southwest>
    <northeast>
     <lat>48.8761954</lat>
     <lng>2.5858168</lng>
    </northeast>
   </viewport>
  </geometry>
  <partial_match>true</partial_match>
 </result>
 <result>
  <type>route</type>
  <formatted_address>Sentier des Haies de Chelles, 77500 Chelles, France</formatted_address>
  <address_component>
   <long_name>Sentier des Haies de Chelles</long_name>
   <short_name>Sentier des Haies de Chelles</short_name>
   <type>route</type>
  </address_component>
  <address_component>
   <long_name>Chelles</long_name>
   <short_name>Chelles</short_name>
   <type>locality</type>
   <type>political</type>
  </address_component>
  <address_component>
   <long_name>Seine-et-Marne</long_name>
   <short_name>77</short_name>
   <type>administrative_area_level_2</type>
   <type>political</type>
  </address_component>
  <address_component>
   <long_name>Île-de-France</long_name>
   <short_name>IDF</short_name>
   <type>administrative_area_level_1</type>
   <type>political</type>
  </address_component>
  <address_component>
   <long_name>France</long_name>
   <short_name>FR</short_name>
   <type>country</type>
   <type>political</type>
  </address_component>
  <address_component>
   <long_name>77500</long_name>
   <short_name>77500</short_name>
   <type>postal_code</type>
  </address_component>
  <geometry>
   <location>
    <lat>48.8844143</lat>
    <lng>2.6068846</lng>
   </location>
   <location_type>GEOMETRIC_CENTER</location_type>
   <viewport>
    <southwest>
     <lat>48.8830877</lat>
     <lng>2.6055412</lng>
    </southwest>
    <northeast>
     <lat>48.8857856</lat>
     <lng>2.6082391</lng>
    </northeast>
   </viewport>
   <bounds>
    <southwest>
     <lat>48.8836423</lat>
     <lng>2.6055824</lng>
    </southwest>
    <northeast>
     <lat>48.8852310</lat>
     <lng>2.6081979</lng>
    </northeast>
   </bounds>
  </geometry>
  <partial_match>true</partial_match>
 </result>
</GeocodeResponse>
<GeocodeResponse>
 <status>OK</status>
 <result>
  <type>locality</type>
  <type>political</type>
  <formatted_address>Saint-Vigor-d'Ymonville, France</formatted_address>
  <address_component>
   <long_name>Saint-Vigor-d'Ymonville</long_name>
   <short_name>Saint-Vigor-d'Ymonville</short_name>
   <type>locality</type>
   <type>political</type>
  </address_component>
  <address_component>
   <long_name>Seine-Maritime</long_name>
   <short_name>76</short_name>
   <type>administrative_area_level_2</type>
   <type>political</type>
  </address_component>
  <address_component>
   <long_name>Upper Normandy</long_name>
   <short_name>Upper Normandy</short_name>
   <type>administrative_area_level_1</type>
   <type>political</type>
  </address_component>
  <address_component>
   <long_name>France</long_name>
   <short_name>FR</short_name>
   <type>country</type>
   <type>political</type>
  </address_component>
  <geometry>
   <location>
    <lat>49.4952670</lat>
    <lng>0.3602270</lng>
   </location>
   <location_type>APPROXIMATE</location_type>
   <viewport>
    <southwest>
     <lat>49.4444834</lat>
     <lng>0.3036830</lng>
    </southwest>
    <northeast>
     <lat>49.5077570</lat>
     <lng>0.3901040</lng>
    </northeast>
   </viewport>
   <bounds>
    <southwest>
     <lat>49.4444834</lat>
     <lng>0.3036830</lng>
    </southwest>
    <northeast>
     <lat>49.5077570</lat>
     <lng>0.3901040</lng>
    </northeast>
   </bounds>
  </geometry>
  <partial_match>true</partial_match>
 </result>
</GeocodeResponse>
<GeocodeResponse>
 <status>ZERO_RESULTS</status>
</GeocodeResponse>
<GeocodeResponse>
 <status>OVER_QUERY_LIMIT</status>
 <error_message>You have exceeded your rate-limit for this API.</error_message>
</GeocodeResponse>
<GeocodeResponse>
 <status>OVER_QUERY_LIMIT</status>
 <error_message>You have exceeded your rate-limit for this API.</error_message>
</GeocodeResponse>
<GeocodeResponse>
 <status>OVER_QUERY_LIMIT</status>
 <error_message>You have exceeded your rate-limit for this API.</error_message>
</GeocodeResponse>
<GeocodeResponse>
 <status>OVER_QUERY_LIMIT</status>
 <error_message>You have exceeded your rate-limit for this API.</error_message>
</GeocodeResponse>
<GeocodeResponse>
 <status>OVER_QUERY_LIMIT</status>
 <error_message>You have exceeded your rate-limit for this API.</error_message>
</GeocodeResponse>
<GeocodeResponse>
 <status>OVER_QUERY_LIMIT</status>
 <error_message>You have exceeded your rate-limit for this API.</error_message>
</GeocodeResponse>
<GeocodeResponse>
 <status>OVER_QUERY_LIMIT</status>
 <error_message>You have exceeded your rate-limit for this API.</error_message>
</GeocodeResponse>
<GeocodeResponse>
 <status>OVER_QUERY_LIMIT</status>
 <error_message>You have exceeded your rate-limit for this API.</error_message>
</GeocodeResponse>
<GeocodeResponse>
 <status>OK</status>
 <result>
  <type>street_address</type>
  <formatted_address>Am Gewerbegebiet 21, 27243 Groß Ippener, Germany</formatted_address>
  <address_component>
   <long_name>21</long_name>
   <short_name>21</short_name>
   <type>street_number</type>
  </address_component>
  <address_component>
   <long_name>Am Gewerbegebiet</long_name>
   <short_name>Am Gewerbegebiet</short_name>
   <type>route</type>
  </address_component>
  <address_component>
   <long_name>Groß Ippener</long_name>
   <short_name>Groß Ippener</short_name>
   <type>locality</type>
   <type>political</type>
  </address_component>
  <address_component>
   <long_name>Lower Saxony</long_name>
   <short_name>NDS</short_name>
   <type>administrative_area_level_1</type>
   <type>political</type>
  </address_component>
  <address_component>
   <long_name>Germany</long_name>
   <short_name>DE</short_name>
   <type>country</type>
   <type>political</type>
  </address_component>
  <address_component>
   <long_name>27243</long_name>
   <short_name>27243</short_name>
   <type>postal_code</type>
  </address_component>
  <geometry>
   <location>
    <lat>52.9768600</lat>
    <lng>8.6229000</lng>
   </location>
   <location_type>ROOFTOP</location_type>
   <viewport>
    <southwest>
     <lat>52.9755110</lat>
     <lng>8.6215510</lng>
    </southwest>
    <northeast>
     <lat>52.9782090</lat>
     <lng>8.6242490</lng>
    </northeast>
   </viewport>
  </geometry>
  <partial_match>true</partial_match>
 </result>
</GeocodeResponse>
<GeocodeResponse>
 <status>OK</status>
 <result>
  <type>locality</type>
  <type>political</type>
  <formatted_address>Stralsund, Germany</formatted_address>
  <address_component>
   <long_name>Stralsund</long_name>
   <short_name>Stralsund</short_name>
   <type>locality</type>
   <type>political</type>
  </address_component>
  <address_component>
   <long_name>Mecklenburg-Vorpommern</long_name>
   <short_name>MV</short_name>
   <type>administrative_area_level_1</type>
   <type>political</type>
  </address_component>
  <address_component>
   <long_name>Germany</long_name>
   <short_name>DE</short_name>
   <type>country</type>
   <type>political</type>
  </address_component>
  <geometry>
   <location>
    <lat>54.2994048</lat>
    <lng>13.0877143</lng>
   </location>
   <location_type>APPROXIMATE</location_type>
   <viewport>
    <southwest>
     <lat>54.2448953</lat>
     <lng>12.9938530</lng>
    </southwest>
    <northeast>
     <lat>54.3457857</lat>
     <lng>13.1783153</lng>
    </northeast>
   </viewport>
   <bounds>
    <southwest>
     <lat>54.2448953</lat>
     <lng>12.9938530</lng>
    </southwest>
    <northeast>
     <lat>54.3457857</lat>
     <lng>13.1783153</lng>
    </northeast>
   </bounds>
  </geometry>
  <partial_match>true</partial_match>
 </result>
</GeocodeResponse>
<GeocodeResponse>
 <status>OK</status>
 <result>
  <type>museum</type>
  <type>point_of_interest</type>
  <type>establishment</type>
  <formatted_address>Heimatmuseum Papenburg, Hauptkanal rechts 13, 26871 Papenburg, Germany</formatted_address>
  <address_component>
   <long_name>Heimatmuseum Papenburg</long_name>
   <short_name>Heimatmuseum Papenburg</short_name>
   <type>point_of_interest</type>
   <type>establishment</type>
  </address_component>
  <address_component>
   <long_name>13</long_name>
   <short_name>13</short_name>
   <type>street_number</type>
  </address_component>
  <address_component>
   <long_name>Hauptkanal rechts</long_name>
   <short_name>Hauptkanal rechts</short_name>
   <type>route</type>
  </address_component>
  <address_component>
   <long_name>Papenburg</long_name>
   <short_name>Papenburg</short_name>
   <type>sublocality</type>
   <type>political</type>
  </address_component>
  <address_component>
   <long_name>Papenburg</long_name>
   <short_name>Papenburg</short_name>
   <type>locality</type>
   <type>political</type>
  </address_component>
  <address_component>
   <long_name>Emsland</long_name>
   <short_name>Emsland</short_name>
   <type>administrative_area_level_3</type>
   <type>political</type>
  </address_component>
  <address_component>
   <long_name>Lower Saxony</long_name>
   <short_name>NDS</short_name>
   <type>administrative_area_level_1</type>
   <type>political</type>
  </address_component>
  <address_component>
   <long_name>Germany</long_name>
   <short_name>DE</short_name>
   <type>country</type>
   <type>political</type>
  </address_component>
  <address_component>
   <long_name>26871</long_name>
   <short_name>26871</short_name>
   <type>postal_code</type>
  </address_component>
  <geometry>
   <location>
    <lat>53.0854684</lat>
    <lng>7.3888579</lng>
   </location>
   <location_type>APPROXIMATE</location_type>
   <viewport>
    <southwest>
     <lat>53.0841194</lat>
     <lng>7.3875089</lng>
    </southwest>
    <northeast>
     <lat>53.0868174</lat>
     <lng>7.3902069</lng>
    </northeast>
   </viewport>
  </geometry>
  <partial_match>true</partial_match>
 </result>
 <result>
  <type>museum</type>
  <type>point_of_interest</type>
  <type>establishment</type>
  <formatted_address>Zeitspeicher, Ölmühlenweg 21, 26871 Papenburg, Germany</formatted_address>
  <address_component>
   <long_name>Zeitspeicher</long_name>
   <short_name>Zeitspeicher</short_name>
   <type>point_of_interest</type>
   <type>establishment</type>
  </address_component>
  <address_component>
   <long_name>21</long_name>
   <short_name>21</short_name>
   <type>street_number</type>
  </address_component>
  <address_component>
   <long_name>Ölmühlenweg</long_name>
   <short_name>Ölmühlenweg</short_name>
   <type>route</type>
  </address_component>
  <address_component>
   <long_name>Papenburg</long_name>
   <short_name>Papenburg</short_name>
   <type>sublocality</type>
   <type>political</type>
  </address_component>
  <address_component>
   <long_name>Papenburg</long_name>
   <short_name>Papenburg</short_name>
   <type>locality</type>
   <type>political</type>
  </address_component>
  <address_component>
   <long_name>Emsland</long_name>
   <short_name>Emsland</short_name>
   <type>administrative_area_level_3</type>
   <type>political</type>
  </address_component>
  <address_component>
   <long_name>Lower Saxony</long_name>
   <short_name>NDS</short_name>
   <type>administrative_area_level_1</type>
   <type>political</type>
  </address_component>
  <address_component>
   <long_name>Germany</long_name>
   <short_name>DE</short_name>
   <type>country</type>
   <type>political</type>
  </address_component>
  <address_component>
   <long_name>26871</long_name>
   <short_name>26871</short_name>
   <type>postal_code</type>
  </address_component>
  <geometry>
   <location>
    <lat>53.0862148</lat>
    <lng>7.3856771</lng>
   </location>
   <location_type>APPROXIMATE</location_type>
   <viewport>
    <southwest>
     <lat>53.0848658</lat>
     <lng>7.3843281</lng>
    </southwest>
    <northeast>
     <lat>53.0875638</lat>
     <lng>7.3870261</lng>
    </northeast>
   </viewport>
  </geometry>
  <partial_match>true</partial_match>
 </result>
 <result>
  <type>point_of_interest</type>
  <type>amusement_park</type>
  <type>establishment</type>
  <formatted_address>Kinder Sternenland Papenburg, Siemensstraße 3, 26871 Papenburg, Germany</formatted_address>
  <address_component>
   <long_name>Kinder Sternenland Papenburg</long_name>
   <short_name>Kinder Sternenland Papenburg</short_name>
   <type>point_of_interest</type>
   <type>establishment</type>
  </address_component>
  <address_component>
   <long_name>3</long_name>
   <short_name>3</short_name>
   <type>street_number</type>
  </address_component>
  <address_component>
   <long_name>Siemensstraße</long_name>
   <short_name>Siemensstraße</short_name>
   <type>route</type>
  </address_component>
  <address_component>
   <long_name>Papenburg</long_name>
   <short_name>Papenburg</short_name>
   <type>locality</type>
   <type>political</type>
  </address_component>
  <address_component>
   <long_name>Emsland</long_name>
   <short_name>Emsland</short_name>
   <type>administrative_area_level_3</type>
   <type>political</type>
  </address_component>
  <address_component>
   <long_name>Lower Saxony</long_name>
   <short_name>NDS</short_name>
   <type>administrative_area_level_1</type>
   <type>political</type>
  </address_component>
  <address_component>
   <long_name>Germany</long_name>
   <short_name>DE</short_name>
   <type>country</type>
   <type>political</type>
  </address_component>
  <address_component>
   <long_name>26871</long_name>
   <short_name>26871</short_name>
   <type>postal_code</type>
  </address_component>
  <geometry>
   <location>
    <lat>53.0920000</lat>
    <lng>7.4028700</lng>
   </location>
   <location_type>APPROXIMATE</location_type>
   <viewport>
    <southwest>
     <lat>53.0906510</lat>
     <lng>7.4015210</lng>
    </southwest>
    <northeast>
     <lat>53.0933490</lat>
     <lng>7.4042190</lng>
    </northeast>
   </viewport>
  </geometry>
  <partial_match>true</partial_match>
 </result>
 <result>
  <type>university</type>
  <type>point_of_interest</type>
  <type>establishment</type>
  <formatted_address>Marienkrankenhaus Papenburg-Aschendorf GmbH Abteilung für Kinder- und Jugendpsychiatrie, Hauptkanal rechts 75, 26871 Papenburg, Germany</formatted_address>
  <address_component>
   <long_name>Marienkrankenhaus Papenburg-Aschendorf GmbH Abteilung für Kinder- und Jugendpsychiatrie</long_name>
   <short_name>Marienkrankenhaus Papenburg-Aschendorf GmbH Abteilung für Kinder- und Jugendpsychiatrie</short_name>
   <type>point_of_interest</type>
   <type>establishment</type>
  </address_component>
  <address_component>
   <long_name>75</long_name>
   <short_name>75</short_name>
   <type>street_number</type>
  </address_component>
  <address_component>
   <long_name>Hauptkanal rechts</long_name>
   <short_name>Hauptkanal rechts</short_name>
   <type>route</type>
  </address_component>
  <address_component>
   <long_name>Papenburg</long_name>
   <short_name>Papenburg</short_name>
   <type>locality</type>
   <type>political</type>
  </address_component>
  <address_component>
